[
  {
    "district_id": "110100",
    "province": "北京市",
    "city": "北京市",
    "district": "北京",
    "lon": "116.405285",
    "lat": "39.904989",
    "stationid": "Wqsps",
    "province1": "BJ",
    "district1": "beijing"
  },
  {
    "district_id": "110101",
    "province": "北京市",
    "city": "北京市",
    "district": "东城",
    "lon": "116.418757",
    "lat": "39.917544",
    "stationid": "Wqsps",
    "province1": "BJ",
    "district1": "beijing"
  },
  {
    "district_id": "110102",
    "province": "北京市",
    "city": "北京市",
    "district": "西城",
    "lon": "116.366794",
    "lat": "39.915309",
    "stationid": "Wqsps",
    "province1": "BJ",
    "district1": "beijing"
  },
  {
    "district_id": "110105",
    "province": "北京市",
    "city": "北京市",
    "district": "朝阳",
    "lon": "116.486409",
    "lat": "39.921489",
    "stationid": "MjXfi",
    "province1": "BJ",
    "district1": "chaoyang"
  },
  {
    "district_id": "110106",
    "province": "北京市",
    "city": "北京市",
    "district": "丰台",
    "lon": "116.286968",
    "lat": "39.863642",
    "stationid": "WgwUa",
    "province1": "BJ",
    "district1": "fengtai"
  },
  {
    "district_id": "110107",
    "province": "北京市",
    "city": "北京市",
    "district": "石景山",
    "lon": "116.195445",
    "lat": "39.914601",
    "stationid": "TKDWT",
    "province1": "BJ",
    "district1": "shijingshan"
  },
  {
    "district_id": "110108",
    "province": "北京市",
    "city": "北京市",
    "district": "海淀",
    "lon": "116.310316",
    "lat": "39.956074",
    "stationid": "fElIR",
    "province1": "BJ",
    "district1": "haidian"
  },
  {
    "district_id": "110109",
    "province": "北京市",
    "city": "北京市",
    "district": "门头沟",
    "lon": "116.105381",
    "lat": "39.937183",
    "stationid": "MNFUM",
    "province1": "BJ",
    "district1": "mentougou"
  },
  {
    "district_id": "110111",
    "province": "北京市",
    "city": "北京市",
    "district": "房山",
    "lon": "116.139157",
    "lat": "39.735535",
    "stationid": "sNifH",
    "province1": "BJ",
    "district1": "fangshan"
  },
  {
    "district_id": "110112",
    "province": "北京市",
    "city": "北京市",
    "district": "通州",
    "lon": "116.658603",
    "lat": "39.902486",
    "stationid": "UXDVf",
    "province1": "BJ",
    "district1": "tongzhou"
  },
  {
    "district_id": "110113",
    "province": "北京市",
    "city": "北京市",
    "district": "顺义",
    "lon": "116.653525",
    "lat": "40.128936",
    "stationid": "MKoqG",
    "province1": "BJ",
    "district1": "shunyi"
  },
  {
    "district_id": "110114",
    "province": "北京市",
    "city": "北京市",
    "district": "昌平",
    "lon": "116.235906",
    "lat": "40.218085",
    "stationid": "niStC",
    "province1": "BJ",
    "district1": "changping"
  },
  {
    "district_id": "110115",
    "province": "北京市",
    "city": "北京市",
    "district": "大兴",
    "lon": "116.338033",
    "lat": "39.728908",
    "stationid": "iEilj",
    "province1": "BJ",
    "district1": "daxing"
  },
  {
    "district_id": "110116",
    "province": "北京市",
    "city": "北京市",
    "district": "怀柔",
    "lon": "116.637122",
    "lat": "40.324272",
    "stationid": "zWIHa",
    "province1": "BJ",
    "district1": "huairou"
  },
  {
    "district_id": "110117",
    "province": "北京市",
    "city": "北京市",
    "district": "平谷",
    "lon": "117.112335",
    "lat": "40.144783",
    "stationid": "WKTDr",
    "province1": "BJ",
    "district1": "pinggu"
  },
  {
    "district_id": "110118",
    "province": "北京市",
    "city": "北京市",
    "district": "密云",
    "lon": "116.843352",
    "lat": "40.377362",
    "stationid": "SlmGF",
    "province1": "BJ",
    "district1": "miyun"
  },
  {
    "district_id": "110119",
    "province": "北京市",
    "city": "北京市",
    "district": "延庆",
    "lon": "115.985006",
    "lat": "40.465325",
    "stationid": "FzrMk",
    "province1": "BJ",
    "district1": "yanqing"
  },
  {
    "district_id": "120100",
    "province": "天津市",
    "city": "天津市",
    "district": "天津",
    "lon": "117.190182",
    "lat": "39.125596",
    "stationid": "yqSjH",
    "province1": "TJ",
    "district1": "tianjin"
  },
  {
    "district_id": "120101",
    "province": "天津市",
    "city": "天津市",
    "district": "和平区",
    "lon": "117.195907",
    "lat": "39.118327",
    "stationid": "eAfAu",
    "province1": "TJ",
    "district1": "heiniucheng"
  },
  {
    "district_id": "120102",
    "province": "天津市",
    "city": "天津市",
    "district": "河东区",
    "lon": "117.226568",
    "lat": "39.122125",
    "stationid": "eAfAu",
    "province1": "TJ",
    "district1": "heiniucheng"
  },
  {
    "district_id": "120103",
    "province": "天津市",
    "city": "天津市",
    "district": "河西区",
    "lon": "117.217536",
    "lat": "39.101897",
    "stationid": "eAfAu",
    "province1": "TJ",
    "district1": "heiniucheng"
  },
  {
    "district_id": "120104",
    "province": "天津市",
    "city": "天津市",
    "district": "南开区",
    "lon": "117.164143",
    "lat": "39.120474",
    "stationid": "eAfAu",
    "province1": "TJ",
    "district1": "heiniucheng"
  },
  {
    "district_id": "120105",
    "province": "天津市",
    "city": "天津市",
    "district": "河北区",
    "lon": "117.201569",
    "lat": "39.156632",
    "stationid": "eAfAu",
    "province1": "TJ",
    "district1": "heiniucheng"
  },
  {
    "district_id": "120106",
    "province": "天津市",
    "city": "天津市",
    "district": "红桥区",
    "lon": "117.163301",
    "lat": "39.175066",
    "stationid": "eAfAu",
    "province1": "TJ",
    "district1": "heiniucheng"
  },
  {
    "district_id": "120110",
    "province": "天津市",
    "city": "天津市",
    "district": "东丽区",
    "lon": "117.313967",
    "lat": "39.087764",
    "stationid": "GiGuJ",
    "province1": "TJ",
    "district1": "dongli"
  },
  {
    "district_id": "120111",
    "province": "天津市",
    "city": "天津市",
    "district": "西青区",
    "lon": "117.012247",
    "lat": "39.139446",
    "stationid": "rerpc",
    "province1": "TJ",
    "district1": "xiqing"
  },
  {
    "district_id": "120112",
    "province": "天津市",
    "city": "天津市",
    "district": "津南区",
    "lon": "117.382549",
    "lat": "38.989577",
    "stationid": "luSKF",
    "province1": "TJ",
    "district1": "jinnan"
  },
  {
    "district_id": "120113",
    "province": "天津市",
    "city": "天津市",
    "district": "北辰区",
    "lon": "117.13482",
    "lat": "39.225555",
    "stationid": "FeuUa",
    "province1": "TJ",
    "district1": "beichen"
  },
  {
    "district_id": "120114",
    "province": "天津市",
    "city": "天津市",
    "district": "武清区",
    "lon": "117.057959",
    "lat": "39.376925",
    "stationid": "AAHhS",
    "province1": "TJ",
    "district1": "wuqing"
  },
  {
    "district_id": "120115",
    "province": "天津市",
    "city": "天津市",
    "district": "宝坻区",
    "lon": "117.308094",
    "lat": "39.716965",
    "stationid": "gxHKu",
    "province1": "TJ",
    "district1": "baozuo"
  },
  {
    "district_id": "120116",
    "province": "天津市",
    "city": "天津市",
    "district": "滨海新区",
    "lon": "117.654173",
    "lat": "39.032846",
    "stationid": "KKlDi",
    "province1": "TJ",
    "district1": "tanggu"
  },
  {
    "district_id": "120117",
    "province": "天津市",
    "city": "天津市",
    "district": "宁河区",
    "lon": "117.82828",
    "lat": "39.328886",
    "stationid": "mfQUa",
    "province1": "TJ",
    "district1": "ninghe"
  },
  {
    "district_id": "120118",
    "province": "天津市",
    "city": "天津市",
    "district": "静海区",
    "lon": "116.925304",
    "lat": "38.935671",
    "stationid": "RvNCI",
    "province1": "TJ",
    "district1": "jinghai"
  },
  {
    "district_id": "120119",
    "province": "天津市",
    "city": "天津市",
    "district": "蓟州区",
    "lon": "117.407449",
    "lat": "40.045342",
    "stationid": "eiGrT",
    "province1": "TJ",
    "district1": "jizhou"
  },
  {
    "district_id": "130100",
    "province": "河北省",
    "city": "石家庄市",
    "district": "石家庄",
    "lon": "114.502461",
    "lat": "38.045474",
    "stationid": "uJQqI",
    "province1": "HE",
    "district1": "shijiazhuang"
  },
  {
    "district_id": "130102",
    "province": "河北省",
    "city": "石家庄市",
    "district": "长安区",
    "lon": "114.548151",
    "lat": "38.047501",
    "stationid": "uJQqI",
    "province1": "HE",
    "district1": "shijiazhuang"
  },
  {
    "district_id": "130104",
    "province": "河北省",
    "city": "石家庄市",
    "district": "桥西区",
    "lon": "114.462931",
    "lat": "38.028383",
    "stationid": "uJQqI",
    "province1": "HE",
    "district1": "shijiazhuang"
  },
  {
    "district_id": "130105",
    "province": "河北省",
    "city": "石家庄市",
    "district": "新华区",
    "lon": "114.465974",
    "lat": "38.067142",
    "stationid": "uJQqI",
    "province1": "HE",
    "district1": "shijiazhuang"
  },
  {
    "district_id": "130107",
    "province": "河北省",
    "city": "石家庄市",
    "district": "井陉矿区",
    "lon": "114.058178",
    "lat": "38.069748",
    "stationid": "uJQqI",
    "province1": "HE",
    "district1": "jingzuo"
  },
  {
    "district_id": "130108",
    "province": "河北省",
    "city": "石家庄市",
    "district": "裕华",
    "lon": "114.533257",
    "lat": "38.027696",
    "stationid": "uJQqI",
    "province1": "HE",
    "district1": "shijiazhuang"
  },
  {
    "district_id": "130109",
    "province": "河北省",
    "city": "石家庄市",
    "district": "藁城",
    "lon": "114.849647",
    "lat": "38.033767",
    "stationid": "BMDXb",
    "province1": "HE",
    "district1": "zuocheng1"
  },
  {
    "district_id": "130110",
    "province": "河北省",
    "city": "石家庄市",
    "district": "鹿泉",
    "lon": "114.321023",
    "lat": "38.093994",
    "stationid": "rlWKm",
    "province1": "HE",
    "district1": "luquan"
  },
  {
    "district_id": "130111",
    "province": "河北省",
    "city": "石家庄市",
    "district": "栾城",
    "lon": "114.654281",
    "lat": "37.886911",
    "stationid": "vPoEm",
    "province1": "HE",
    "district1": "zuocheng2"
  },
  {
    "district_id": "130121",
    "province": "河北省",
    "city": "石家庄市",
    "district": "井陉",
    "lon": "114.144488",
    "lat": "38.033614",
    "stationid": "PxsDy",
    "province1": "HE",
    "district1": "jingzuo"
  },
  {
    "district_id": "130123",
    "province": "河北省",
    "city": "石家庄市",
    "district": "正定",
    "lon": "114.569887",
    "lat": "38.147835",
    "stationid": "sENtA",
    "province1": "HE",
    "district1": "zhengding"
  },
  {
    "district_id": "130125",
    "province": "河北省",
    "city": "石家庄市",
    "district": "行唐",
    "lon": "114.552734",
    "lat": "38.437422",
    "stationid": "rZAWC",
    "province1": "HE",
    "district1": "xingtang"
  },
  {
    "district_id": "130126",
    "province": "河北省",
    "city": "石家庄市",
    "district": "灵寿",
    "lon": "114.37946",
    "lat": "38.306546",
    "stationid": "TynGR",
    "province1": "HE",
    "district1": "lingshou"
  },
  {
    "district_id": "130127",
    "province": "河北省",
    "city": "石家庄市",
    "district": "高邑",
    "lon": "114.610699",
    "lat": "37.605714",
    "stationid": "Slmxc",
    "province1": "HE",
    "district1": "gaoyi"
  },
  {
    "district_id": "130128",
    "province": "河北省",
    "city": "石家庄市",
    "district": "深泽",
    "lon": "115.200207",
    "lat": "38.18454",
    "stationid": "vGtXb",
    "province1": "HE",
    "district1": "shenze"
  },
  {
    "district_id": "130129",
    "province": "河北省",
    "city": "石家庄市",
    "district": "赞皇",
    "lon": "114.387756",
    "lat": "37.660199",
    "stationid": "mEbhg",
    "province1": "HE",
    "district1": "zanhuang"
  },
  {
    "district_id": "130130",
    "province": "河北省",
    "city": "石家庄市",
    "district": "无极",
    "lon": "114.977845",
    "lat": "38.176376",
    "stationid": "YGoOp",
    "province1": "HE",
    "district1": "wuji"
  },
  {
    "district_id": "130131",
    "province": "河北省",
    "city": "石家庄市",
    "district": "平山",
    "lon": "114.184144",
    "lat": "38.259311",
    "stationid": "lzuFh",
    "province1": "HE",
    "district1": "pingshan"
  },
  {
    "district_id": "130132",
    "province": "河北省",
    "city": "石家庄市",
    "district": "元氏",
    "lon": "114.52618",
    "lat": "37.762514",
    "stationid": "XHFGV",
    "province1": "HE",
    "district1": "yuanshi"
  },
  {
    "district_id": "130133",
    "province": "河北省",
    "city": "石家庄市",
    "district": "赵县",
    "lon": "114.775362",
    "lat": "37.754341",
    "stationid": "yXSFQ",
    "province1": "HE",
    "district1": "zhaoxian"
  },
  {
    "district_id": "130181",
    "province": "河北省",
    "city": "石家庄市",
    "district": "辛集",
    "lon": "115.217451",
    "lat": "37.92904",
    "stationid": "HdwIC",
    "province1": "HE",
    "district1": "xinji"
  },
  {
    "district_id": "130183",
    "province": "河北省",
    "city": "石家庄市",
    "district": "晋州",
    "lon": "115.044886",
    "lat": "38.027478",
    "stationid": "vGudX",
    "province1": "HE",
    "district1": "jinzhou"
  },
  {
    "district_id": "130184",
    "province": "河北省",
    "city": "石家庄市",
    "district": "新乐",
    "lon": "114.68578",
    "lat": "38.344768",
    "stationid": "xNnEo",
    "province1": "HE",
    "district1": "xinle"
  },
  {
    "district_id": "130200",
    "province": "河北省",
    "city": "唐山市",
    "district": "唐山",
    "lon": "118.175393",
    "lat": "39.635113",
    "stationid": "aCRJR",
    "province1": "HE",
    "district1": "tangshan"
  },
  {
    "district_id": "130202",
    "province": "河北省",
    "city": "唐山市",
    "district": "路南区",
    "lon": "118.210821",
    "lat": "39.615162",
    "stationid": "aCRJR",
    "province1": "HE",
    "district1": "tangshan"
  },
  {
    "district_id": "130203",
    "province": "河北省",
    "city": "唐山市",
    "district": "路北区",
    "lon": "118.174736",
    "lat": "39.628538",
    "stationid": "aCRJR",
    "province1": "HE",
    "district1": "tangshan"
  },
  {
    "district_id": "130204",
    "province": "河北省",
    "city": "唐山市",
    "district": "古冶",
    "lon": "118.45429",
    "lat": "39.715736",
    "stationid": "aCRJR",
    "province1": "HE",
    "district1": "tangshan"
  },
  {
    "district_id": "130205",
    "province": "河北省",
    "city": "唐山市",
    "district": "开平区",
    "lon": "118.264425",
    "lat": "39.676171",
    "stationid": "aCRJR",
    "province1": "HE",
    "district1": "tangshan"
  },
  {
    "district_id": "130207",
    "province": "河北省",
    "city": "唐山市",
    "district": "丰南",
    "lon": "118.110793",
    "lat": "39.56303",
    "stationid": "dLkgL",
    "province1": "HE",
    "district1": "fengnan"
  },
  {
    "district_id": "130208",
    "province": "河北省",
    "city": "唐山市",
    "district": "丰润",
    "lon": "118.155779",
    "lat": "39.831363",
    "stationid": "Aaghn",
    "province1": "HE",
    "district1": "fengrun"
  },
  {
    "district_id": "130209",
    "province": "河北省",
    "city": "唐山市",
    "district": "曹妃甸",
    "lon": "118.446585",
    "lat": "39.278277",
    "stationid": "wrjjn",
    "province1": "HE",
    "district1": "caozuodian"
  },
  {
    "district_id": "130224",
    "province": "河北省",
    "city": "唐山市",
    "district": "滦南",
    "lon": "118.681552",
    "lat": "39.506201",
    "stationid": "RlsNU",
    "province1": "HE",
    "district1": "luannan"
  },
  {
    "district_id": "130225",
    "province": "河北省",
    "city": "唐山市",
    "district": "乐亭",
    "lon": "118.905341",
    "lat": "39.42813",
    "stationid": "BygfA",
    "province1": "HE",
    "district1": "leting"
  },
  {
    "district_id": "130227",
    "province": "河北省",
    "city": "唐山市",
    "district": "迁西",
    "lon": "118.305139",
    "lat": "40.146238",
    "stationid": "qvzeN",
    "province1": "HE",
    "district1": "qianxi"
  },
  {
    "district_id": "130229",
    "province": "河北省",
    "city": "唐山市",
    "district": "玉田",
    "lon": "117.753665",
    "lat": "39.887323",
    "stationid": "SHtYc",
    "province1": "HE",
    "district1": "yutian"
  },
  {
    "district_id": "130281",
    "province": "河北省",
    "city": "唐山市",
    "district": "遵化",
    "lon": "117.965875",
    "lat": "40.188616",
    "stationid": "Bcxig",
    "province1": "HE",
    "district1": "zunhua"
  },
  {
    "district_id": "130283",
    "province": "河北省",
    "city": "唐山市",
    "district": "迁安",
    "lon": "118.701933",
    "lat": "40.012108",
    "stationid": "qUXcf",
    "province1": "HE",
    "district1": "qianan"
  },
  {
    "district_id": "130284",
    "province": "河北省",
    "city": "唐山市",
    "district": "滦州",
    "lon": "118.71048",
    "lat": "39.747116",
    "stationid": "zbjeL",
    "province1": "HE",
    "district1": "luanzhou"
  },
  {
    "district_id": "130300",
    "province": "河北省",
    "city": "秦皇岛市",
    "district": "秦皇岛",
    "lon": "119.586579",
    "lat": "39.942531",
    "stationid": "SBrmr",
    "province1": "HE",
    "district1": "qinhuangdao"
  },
  {
    "district_id": "130302",
    "province": "河北省",
    "city": "秦皇岛市",
    "district": "海港区",
    "lon": "119.596224",
    "lat": "39.943458",
    "stationid": "SBrmr",
    "province1": "HE",
    "district1": "qinhuangdao"
  },
  {
    "district_id": "130303",
    "province": "河北省",
    "city": "秦皇岛市",
    "district": "山海关",
    "lon": "119.753591",
    "lat": "39.998023",
    "stationid": "SBrmr",
    "province1": "HE",
    "district1": "qinhuangdao"
  },
  {
    "district_id": "130304",
    "province": "河北省",
    "city": "秦皇岛市",
    "district": "北戴河",
    "lon": "119.486286",
    "lat": "39.825121",
    "stationid": "SBrmr",
    "province1": "HE",
    "district1": "qinhuangdao"
  },
  {
    "district_id": "130306",
    "province": "河北省",
    "city": "秦皇岛市",
    "district": "抚宁",
    "lon": "119.240651",
    "lat": "39.887053",
    "stationid": "TAGXi",
    "province1": "HE",
    "district1": "funing"
  },
  {
    "district_id": "130321",
    "province": "河北省",
    "city": "秦皇岛市",
    "district": "青龙",
    "lon": "118.954555",
    "lat": "40.406023",
    "stationid": "DlwUH",
    "province1": "HE",
    "district1": "qinglong"
  },
  {
    "district_id": "130322",
    "province": "河北省",
    "city": "秦皇岛市",
    "district": "昌黎",
    "lon": "119.164541",
    "lat": "39.709729",
    "stationid": "vTGXA",
    "province1": "HE",
    "district1": "changli"
  },
  {
    "district_id": "130324",
    "province": "河北省",
    "city": "秦皇岛市",
    "district": "卢龙",
    "lon": "118.881809",
    "lat": "39.891639",
    "stationid": "uszcX",
    "province1": "HE",
    "district1": "lulong"
  },
  {
    "district_id": "130400",
    "province": "河北省",
    "city": "邯郸市",
    "district": "邯郸",
    "lon": "114.490686",
    "lat": "36.612273",
    "stationid": "AwDQd",
    "province1": "HE",
    "district1": "handan"
  },
  {
    "district_id": "130402",
    "province": "河北省",
    "city": "邯郸市",
    "district": "邯山区",
    "lon": "114.484989",
    "lat": "36.603196",
    "stationid": "AwDQd",
    "province1": "HE",
    "district1": "handan"
  },
  {
    "district_id": "130403",
    "province": "河北省",
    "city": "邯郸市",
    "district": "丛台区",
    "lon": "114.494703",
    "lat": "36.611082",
    "stationid": "AwDQd",
    "province1": "HE",
    "district1": "handan"
  },
  {
    "district_id": "130404",
    "province": "河北省",
    "city": "邯郸市",
    "district": "复兴区",
    "lon": "114.458242",
    "lat": "36.615484",
    "stationid": "AwDQd",
    "province1": "HE",
    "district1": "handan"
  },
  {
    "district_id": "130406",
    "province": "河北省",
    "city": "邯郸市",
    "district": "峰峰",
    "lon": "114.209936",
    "lat": "36.420487",
    "stationid": "eRyds",
    "province1": "HE",
    "district1": "fengfeng"
  },
  {
    "district_id": "130407",
    "province": "河北省",
    "city": "邯郸市",
    "district": "肥乡",
    "lon": "114.805154",
    "lat": "36.555778",
    "stationid": "JnWfX",
    "province1": "HE",
    "district1": "feixiang"
  },
  {
    "district_id": "130408",
    "province": "河北省",
    "city": "邯郸市",
    "district": "永年",
    "lon": "114.496162",
    "lat": "36.776413",
    "stationid": "bJQcD",
    "province1": "HE",
    "district1": "yongnian"
  },
  {
    "district_id": "130423",
    "province": "河北省",
    "city": "邯郸市",
    "district": "临漳",
    "lon": "114.610703",
    "lat": "36.337604",
    "stationid": "iStnu",
    "province1": "HE",
    "district1": "linzhang"
  },
  {
    "district_id": "130424",
    "province": "河北省",
    "city": "邯郸市",
    "district": "成安",
    "lon": "114.680356",
    "lat": "36.443832",
    "stationid": "HMSVy",
    "province1": "HE",
    "district1": "chengan"
  },
  {
    "district_id": "130425",
    "province": "河北省",
    "city": "邯郸市",
    "district": "大名",
    "lon": "115.152586",
    "lat": "36.283316",
    "stationid": "ylLRu",
    "province1": "HE",
    "district1": "daming"
  },
  {
    "district_id": "130426",
    "province": "河北省",
    "city": "邯郸市",
    "district": "涉县",
    "lon": "113.673297",
    "lat": "36.563143",
    "stationid": "YueHa",
    "province1": "HE",
    "district1": "shexian"
  },
  {
    "district_id": "130427",
    "province": "河北省",
    "city": "邯郸市",
    "district": "磁县",
    "lon": "114.38208",
    "lat": "36.367673",
    "stationid": "vQqbv",
    "province1": "HE",
    "district1": "cixian"
  },
  {
    "district_id": "130430",
    "province": "河北省",
    "city": "邯郸市",
    "district": "邱县",
    "lon": "115.168584",
    "lat": "36.81325",
    "stationid": "uEdAG",
    "province1": "HE",
    "district1": "qiuxian"
  },
  {
    "district_id": "130431",
    "province": "河北省",
    "city": "邯郸市",
    "district": "鸡泽",
    "lon": "114.878517",
    "lat": "36.914908",
    "stationid": "AGkyS",
    "province1": "HE",
    "district1": "jize"
  },
  {
    "district_id": "130432",
    "province": "河北省",
    "city": "邯郸市",
    "district": "广平",
    "lon": "114.950859",
    "lat": "36.483603",
    "stationid": "fQMyR",
    "province1": "HE",
    "district1": "guangping"
  },
  {
    "district_id": "130433",
    "province": "河北省",
    "city": "邯郸市",
    "district": "馆陶",
    "lon": "115.289057",
    "lat": "36.539461",
    "stationid": "cAOkd",
    "province1": "HE",
    "district1": "guantao"
  },
  {
    "district_id": "130434",
    "province": "河北省",
    "city": "邯郸市",
    "district": "魏县",
    "lon": "114.93411",
    "lat": "36.354248",
    "stationid": "JdkhE",
    "province1": "HE",
    "district1": "weixian2"
  },
  {
    "district_id": "130435",
    "province": "河北省",
    "city": "邯郸市",
    "district": "曲周",
    "lon": "114.957588",
    "lat": "36.773398",
    "stationid": "fAOhd",
    "province1": "HE",
    "district1": "quzhou"
  },
  {
    "district_id": "130481",
    "province": "河北省",
    "city": "邯郸市",
    "district": "武安",
    "lon": "114.194581",
    "lat": "36.696115",
    "stationid": "FwHWv",
    "province1": "HE",
    "district1": "wuan"
  },
  {
    "district_id": "130500",
    "province": "河北省",
    "city": "邢台市",
    "district": "邢台",
    "lon": "114.561132",
    "lat": "37.05073",
    "stationid": "WgyJx",
    "province1": "HE",
    "district1": "xingtai"
  },
  {
    "district_id": "130502",
    "province": "河北省",
    "city": "邢台市",
    "district": "桥东区",
    "lon": "114.507131",
    "lat": "37.064125",
    "stationid": "WgyJx",
    "province1": "HE",
    "district1": "xingtai"
  },
  {
    "district_id": "130503",
    "province": "河北省",
    "city": "邢台市",
    "district": "桥西区",
    "lon": "114.473687",
    "lat": "37.068009",
    "stationid": "WgyJx",
    "province1": "HE",
    "district1": "xingtai"
  },
  {
    "district_id": "130521",
    "province": "河北省",
    "city": "邢台市",
    "district": "邢台县",
    "lon": "114.143411",
    "lat": "37.1771093",
    "stationid": "WgyJx",
    "province1": "HE",
    "district1": "xingtai"
  },
  {
    "district_id": "130522",
    "province": "河北省",
    "city": "邢台市",
    "district": "临城",
    "lon": "114.506873",
    "lat": "37.444009",
    "stationid": "tBOjo",
    "province1": "HE",
    "district1": "lincheng"
  },
  {
    "district_id": "130523",
    "province": "河北省",
    "city": "邢台市",
    "district": "内丘",
    "lon": "114.511523",
    "lat": "37.287663",
    "stationid": "tbLfc",
    "province1": "HE",
    "district1": "neiqiu"
  },
  {
    "district_id": "130524",
    "province": "河北省",
    "city": "邢台市",
    "district": "柏乡",
    "lon": "114.693382",
    "lat": "37.483596",
    "stationid": "dVXww",
    "province1": "HE",
    "district1": "baixiang"
  },
  {
    "district_id": "130525",
    "province": "河北省",
    "city": "邢台市",
    "district": "隆尧",
    "lon": "114.776348",
    "lat": "37.350925",
    "stationid": "CoRNr",
    "province1": "HE",
    "district1": "longyao"
  },
  {
    "district_id": "130526",
    "province": "河北省",
    "city": "邢台市",
    "district": "任县",
    "lon": "114.684469",
    "lat": "37.129952",
    "stationid": "HjWcO",
    "province1": "HE",
    "district1": "nanhe"
  },
  {
    "district_id": "130527",
    "province": "河北省",
    "city": "邢台市",
    "district": "南和",
    "lon": "114.691377",
    "lat": "37.003812",
    "stationid": "HjWcO",
    "province1": "HE",
    "district1": "nanhe"
  },
  {
    "district_id": "130528",
    "province": "河北省",
    "city": "邢台市",
    "district": "宁晋",
    "lon": "114.921027",
    "lat": "37.618956",
    "stationid": "QwGch",
    "province1": "HE",
    "district1": "ningjin"
  },
  {
    "district_id": "130529",
    "province": "河北省",
    "city": "邢台市",
    "district": "巨鹿",
    "lon": "115.038782",
    "lat": "37.21768",
    "stationid": "XXUYp",
    "province1": "HE",
    "district1": "julu"
  },
  {
    "district_id": "130530",
    "province": "河北省",
    "city": "邢台市",
    "district": "新河",
    "lon": "115.247537",
    "lat": "37.526216",
    "stationid": "YGLDG",
    "province1": "HE",
    "district1": "xinhe"
  },
  {
    "district_id": "130531",
    "province": "河北省",
    "city": "邢台市",
    "district": "广宗",
    "lon": "115.142797",
    "lat": "37.075548",
    "stationid": "mKRmY",
    "province1": "HE",
    "district1": "guangzong"
  },
  {
    "district_id": "130532",
    "province": "河北省",
    "city": "邢台市",
    "district": "平乡",
    "lon": "115.029218",
    "lat": "37.069404",
    "stationid": "cOXrB",
    "province1": "HE",
    "district1": "pingxiang"
  },
  {
    "district_id": "130533",
    "province": "河北省",
    "city": "邢台市",
    "district": "威县",
    "lon": "115.272749",
    "lat": "36.983272",
    "stationid": "LzLae",
    "province1": "HE",
    "district1": "weixian3"
  },
  {
    "district_id": "130534",
    "province": "河北省",
    "city": "邢台市",
    "district": "清河",
    "lon": "115.668999",
    "lat": "37.059991",
    "stationid": "zUBhk",
    "province1": "HE",
    "district1": "qinghe"
  },
  {
    "district_id": "130535",
    "province": "河北省",
    "city": "邢台市",
    "district": "临西",
    "lon": "115.498684",
    "lat": "36.8642",
    "stationid": "quDcn",
    "province1": "HE",
    "district1": "linxi"
  },
  {
    "district_id": "130581",
    "province": "河北省",
    "city": "邢台市",
    "district": "南宫",
    "lon": "115.398102",
    "lat": "37.359668",
    "stationid": "QDdHX",
    "province1": "HE",
    "district1": "nangong"
  },
  {
    "district_id": "130582",
    "province": "河北省",
    "city": "邢台市",
    "district": "沙河",
    "lon": "114.504902",
    "lat": "36.861903",
    "stationid": "DPtSW",
    "province1": "HE",
    "district1": "shahe"
  },
  {
    "district_id": "130600",
    "province": "河北省",
    "city": "保定市",
    "district": "保定",
    "lon": "115.482331",
    "lat": "38.867657",
    "stationid": "FaykR",
    "province1": "HE",
    "district1": "baoding"
  },
  {
    "district_id": "130602",
    "province": "河北省",
    "city": "保定市",
    "district": "竞秀",
    "lon": "115.470659",
    "lat": "38.88662",
    "stationid": "FaykR",
    "province1": "HE",
    "district1": "baoding"
  },
  {
    "district_id": "130606",
    "province": "河北省",
    "city": "保定市",
    "district": "莲池",
    "lon": "115.500934",
    "lat": "38.865005",
    "stationid": "FaykR",
    "province1": "HE",
    "district1": "baoding"
  },
  {
    "district_id": "130607",
    "province": "河北省",
    "city": "保定市",
    "district": "满城",
    "lon": "115.32442",
    "lat": "38.95138",
    "stationid": "zHLty",
    "province1": "HE",
    "district1": "mancheng"
  },
  {
    "district_id": "130608",
    "province": "河北省",
    "city": "保定市",
    "district": "清苑",
    "lon": "115.492221",
    "lat": "38.771012",
    "stationid": "zHLty",
    "province1": "HE",
    "district1": "mancheng"
  },
  {
    "district_id": "130609",
    "province": "河北省",
    "city": "保定市",
    "district": "徐水",
    "lon": "115.64941",
    "lat": "39.020395",
    "stationid": "VNsra",
    "province1": "HE",
    "district1": "xushui"
  },
  {
    "district_id": "130623",
    "province": "河北省",
    "city": "保定市",
    "district": "涞水",
    "lon": "115.711985",
    "lat": "39.393148",
    "stationid": "VNsra",
    "province1": "HE",
    "district1": "xushui"
  },
  {
    "district_id": "130624",
    "province": "河北省",
    "city": "保定市",
    "district": "阜平",
    "lon": "114.198801",
    "lat": "38.847276",
    "stationid": "XELos",
    "province1": "HE",
    "district1": "fuping"
  },
  {
    "district_id": "130626",
    "province": "河北省",
    "city": "保定市",
    "district": "定兴",
    "lon": "115.796895",
    "lat": "39.266195",
    "stationid": "XELos",
    "province1": "HE",
    "district1": "fuping"
  },
  {
    "district_id": "130627",
    "province": "河北省",
    "city": "保定市",
    "district": "唐县",
    "lon": "114.981241",
    "lat": "38.748542",
    "stationid": "IIPwa",
    "province1": "HE",
    "district1": "tangxian"
  },
  {
    "district_id": "130628",
    "province": "河北省",
    "city": "保定市",
    "district": "高阳",
    "lon": "115.778878",
    "lat": "38.690092",
    "stationid": "QIPjL",
    "province1": "HE",
    "district1": "gaoyang"
  },
  {
    "district_id": "130629",
    "province": "河北省",
    "city": "保定市",
    "district": "容城",
    "lon": "115.866247",
    "lat": "39.05282",
    "stationid": "iqimR",
    "province1": "HE",
    "district1": "rongcheng"
  },
  {
    "district_id": "130630",
    "province": "河北省",
    "city": "保定市",
    "district": "涞源",
    "lon": "114.692567",
    "lat": "39.35755",
    "stationid": "ZdmWW",
    "province1": "HE",
    "district1": "zuoyuan"
  },
  {
    "district_id": "130631",
    "province": "河北省",
    "city": "保定市",
    "district": "望都",
    "lon": "115.154009",
    "lat": "38.707448",
    "stationid": "uvaeY",
    "province1": "HE",
    "district1": "wangdu"
  },
  {
    "district_id": "130632",
    "province": "河北省",
    "city": "保定市",
    "district": "安新",
    "lon": "115.931979",
    "lat": "38.929912",
    "stationid": "UujiJ",
    "province1": "HE",
    "district1": "anxin"
  },
  {
    "district_id": "130633",
    "province": "河北省",
    "city": "保定市",
    "district": "易县",
    "lon": "115.501146",
    "lat": "39.35297",
    "stationid": "mnilQ",
    "province1": "HE",
    "district1": "yixian"
  },
  {
    "district_id": "130634",
    "province": "河北省",
    "city": "保定市",
    "district": "曲阳",
    "lon": "114.704055",
    "lat": "38.619992",
    "stationid": "KVJiP",
    "province1": "HE",
    "district1": "quyang"
  },
  {
    "district_id": "130635",
    "province": "河北省",
    "city": "保定市",
    "district": "蠡县",
    "lon": "115.583631",
    "lat": "38.496429",
    "stationid": "yYUQU",
    "province1": "HE",
    "district1": "zuoxian"
  },
  {
    "district_id": "130636",
    "province": "河北省",
    "city": "保定市",
    "district": "顺平",
    "lon": "115.132749",
    "lat": "38.845127",
    "stationid": "AFgnu",
    "province1": "HE",
    "district1": "shunping"
  },
  {
    "district_id": "130637",
    "province": "河北省",
    "city": "保定市",
    "district": "博野",
    "lon": "115.461798",
    "lat": "38.458271",
    "stationid": "yYUQU",
    "province1": "HE",
    "district1": "zuoxian"
  },
  {
    "district_id": "130638",
    "province": "河北省",
    "city": "保定市",
    "district": "雄县",
    "lon": "116.107474",
    "lat": "38.990819",
    "stationid": "FTACx",
    "province1": "HE",
    "district1": "xiongxian"
  },
  {
    "district_id": "130681",
    "province": "河北省",
    "city": "保定市",
    "district": "涿州",
    "lon": "115.973409",
    "lat": "39.485765",
    "stationid": "BGCup",
    "province1": "HE",
    "district1": "zuozhou"
  },
  {
    "district_id": "130682",
    "province": "河北省",
    "city": "保定市",
    "district": "定州",
    "lon": "114.991389",
    "lat": "38.517602",
    "stationid": "EXTBR",
    "province1": "HE",
    "district1": "dingzhou"
  },
  {
    "district_id": "130683",
    "province": "河北省",
    "city": "保定市",
    "district": "安国",
    "lon": "115.33141",
    "lat": "38.421367",
    "stationid": "vceHS",
    "province1": "HE",
    "district1": "anguo"
  },
  {
    "district_id": "130684",
    "province": "河北省",
    "city": "保定市",
    "district": "高碑店",
    "lon": "115.882704",
    "lat": "39.327689",
    "stationid": "nSuxQ",
    "province1": "HE",
    "district1": "gaobeidian"
  },
  {
    "district_id": "130700",
    "province": "河北省",
    "city": "张家口市",
    "district": "张家口",
    "lon": "114.884091",
    "lat": "40.811901",
    "stationid": "AXmqR",
    "province1": "HE",
    "district1": "zhangjiakou"
  },
  {
    "district_id": "130702",
    "province": "河北省",
    "city": "张家口市",
    "district": "桥东区",
    "lon": "114.885658",
    "lat": "40.813875",
    "stationid": "AXmqR",
    "province1": "HE",
    "district1": "zhangjiakou"
  },
  {
    "district_id": "130703",
    "province": "河北省",
    "city": "张家口市",
    "district": "桥西区",
    "lon": "114.882127",
    "lat": "40.824385",
    "stationid": "AXmqR",
    "province1": "HE",
    "district1": "zhangjiakou"
  },
  {
    "district_id": "130705",
    "province": "河北省",
    "city": "张家口市",
    "district": "宣化",
    "lon": "115.0632",
    "lat": "40.609368",
    "stationid": "bLxvu",
    "province1": "HE",
    "district1": "xuanhua"
  },
  {
    "district_id": "130706",
    "province": "河北省",
    "city": "张家口市",
    "district": "下花园",
    "lon": "115.281002",
    "lat": "40.488645",
    "stationid": "bLxvu",
    "province1": "HE",
    "district1": "xuanhua"
  },
  {
    "district_id": "130708",
    "province": "河北省",
    "city": "张家口市",
    "district": "万全",
    "lon": "114.736131",
    "lat": "40.765136",
    "stationid": "nXeQi",
    "province1": "HE",
    "district1": "wanquan"
  },
  {
    "district_id": "130709",
    "province": "河北省",
    "city": "张家口市",
    "district": "崇礼",
    "lon": "115.281652",
    "lat": "40.971302",
    "stationid": "pOnxu",
    "province1": "HE",
    "district1": "chongli"
  },
  {
    "district_id": "130722",
    "province": "河北省",
    "city": "张家口市",
    "district": "张北",
    "lon": "114.715951",
    "lat": "41.151713",
    "stationid": "Ykfmn",
    "province1": "HE",
    "district1": "zhangbei"
  },
  {
    "district_id": "130723",
    "province": "河北省",
    "city": "张家口市",
    "district": "康保",
    "lon": "114.615809",
    "lat": "41.850046",
    "stationid": "KcroZ",
    "province1": "HE",
    "district1": "kangbao"
  },
  {
    "district_id": "130724",
    "province": "河北省",
    "city": "张家口市",
    "district": "沽源",
    "lon": "115.684836",
    "lat": "41.667419",
    "stationid": "bsXrE",
    "province1": "HE",
    "district1": "guyuan"
  },
  {
    "district_id": "130725",
    "province": "河北省",
    "city": "张家口市",
    "district": "尚义",
    "lon": "113.977713",
    "lat": "41.080091",
    "stationid": "BukSn",
    "province1": "HE",
    "district1": "shangyi"
  },
  {
    "district_id": "130726",
    "province": "河北省",
    "city": "张家口市",
    "district": "蔚县",
    "lon": "114.582695",
    "lat": "39.837181",
    "stationid": "YbKUt",
    "province1": "HE",
    "district1": "weixian1"
  },
  {
    "district_id": "130727",
    "province": "河北省",
    "city": "张家口市",
    "district": "阳原",
    "lon": "114.167343",
    "lat": "40.113419",
    "stationid": "daicd",
    "province1": "HE",
    "district1": "yangyuan"
  },
  {
    "district_id": "130728",
    "province": "河北省",
    "city": "张家口市",
    "district": "怀安",
    "lon": "114.422364",
    "lat": "40.671274",
    "stationid": "GKAfR",
    "province1": "HE",
    "district1": "huaian"
  },
  {
    "district_id": "130730",
    "province": "河北省",
    "city": "张家口市",
    "district": "怀来",
    "lon": "115.520846",
    "lat": "40.405405",
    "stationid": "TNNEz",
    "province1": "HE",
    "district1": "huailai"
  },
  {
    "district_id": "130731",
    "province": "河北省",
    "city": "张家口市",
    "district": "涿鹿",
    "lon": "115.219246",
    "lat": "40.378701",
    "stationid": "oqgGH",
    "province1": "HE",
    "district1": "zuolu"
  },
  {
    "district_id": "130732",
    "province": "河北省",
    "city": "张家口市",
    "district": "赤城",
    "lon": "115.832708",
    "lat": "40.912081",
    "stationid": "yeGWo",
    "province1": "HE",
    "district1": "chicheng"
  },
  {
    "district_id": "130800",
    "province": "河北省",
    "city": "承德市",
    "district": "承德",
    "lon": "117.939152",
    "lat": "40.976204",
    "stationid": "oWYwK",
    "province1": "HE",
    "district1": "chengde"
  },
  {
    "district_id": "130802",
    "province": "河北省",
    "city": "承德市",
    "district": "双桥",
    "lon": "117.939152",
    "lat": "40.976204",
    "stationid": "oWYwK",
    "province1": "HE",
    "district1": "chengde"
  },
  {
    "district_id": "130803",
    "province": "河北省",
    "city": "承德市",
    "district": "双滦",
    "lon": "117.797485",
    "lat": "40.959756",
    "stationid": "oWYwK",
    "province1": "HE",
    "district1": "chengde"
  },
  {
    "district_id": "130804",
    "province": "河北省",
    "city": "承德市",
    "district": "鹰手营子",
    "lon": "117.661154",
    "lat": "40.546956",
    "stationid": "oWYwK",
    "province1": "HE",
    "district1": "chengde"
  },
  {
    "district_id": "130821",
    "province": "河北省",
    "city": "承德市",
    "district": "承德县",
    "lon": "118.172496",
    "lat": "40.768637",
    "stationid": "WYnNt",
    "province1": "HE",
    "district1": "chengdexian"
  },
  {
    "district_id": "130822",
    "province": "河北省",
    "city": "承德市",
    "district": "兴隆",
    "lon": "117.507098",
    "lat": "40.418525",
    "stationid": "qWokG",
    "province1": "HE",
    "district1": "xinglong"
  },
  {
    "district_id": "130824",
    "province": "河北省",
    "city": "承德市",
    "district": "滦平",
    "lon": "117.337124",
    "lat": "40.936644",
    "stationid": "gPeaq",
    "province1": "HE",
    "district1": "luanping"
  },
  {
    "district_id": "130825",
    "province": "河北省",
    "city": "承德市",
    "district": "隆化",
    "lon": "117.736343",
    "lat": "41.316667",
    "stationid": "KkHVu",
    "province1": "HE",
    "district1": "longhua"
  },
  {
    "district_id": "130826",
    "province": "河北省",
    "city": "承德市",
    "district": "丰宁",
    "lon": "116.65121",
    "lat": "41.209903",
    "stationid": "MnxTS",
    "province1": "HE",
    "district1": "fengning"
  },
  {
    "district_id": "130827",
    "province": "河北省",
    "city": "承德市",
    "district": "宽城",
    "lon": "118.488642",
    "lat": "40.607981",
    "stationid": "aQZks",
    "province1": "HE",
    "district1": "kuancheng"
  },
  {
    "district_id": "130828",
    "province": "河北省",
    "city": "承德市",
    "district": "围场",
    "lon": "117.764086",
    "lat": "41.949404",
    "stationid": "hbBle",
    "province1": "HE",
    "district1": "weichang"
  },
  {
    "district_id": "130881",
    "province": "河北省",
    "city": "承德市",
    "district": "平泉",
    "lon": "118.690238",
    "lat": "41.00561",
    "stationid": "rhIky",
    "province1": "HE",
    "district1": "pingquan"
  },
  {
    "district_id": "130900",
    "province": "河北省",
    "city": "沧州市",
    "district": "沧州",
    "lon": "116.857461",
    "lat": "38.310582",
    "stationid": "mHkdW",
    "province1": "HE",
    "district1": "cangzhou"
  },
  {
    "district_id": "130902",
    "province": "河北省",
    "city": "沧州市",
    "district": "新华区",
    "lon": "116.873049",
    "lat": "38.308273",
    "stationid": "mHkdW",
    "province1": "HE",
    "district1": "cangzhou"
  },
  {
    "district_id": "130903",
    "province": "河北省",
    "city": "沧州市",
    "district": "运河",
    "lon": "116.840063",
    "lat": "38.307405",
    "stationid": "mHkdW",
    "province1": "HE",
    "district1": "cangzhou"
  },
  {
    "district_id": "130921",
    "province": "河北省",
    "city": "沧州市",
    "district": "沧县",
    "lon": "117.007478",
    "lat": "38.219856",
    "stationid": "mHkdW",
    "province1": "HE",
    "district1": "cangzhou"
  },
  {
    "district_id": "130922",
    "province": "河北省",
    "city": "沧州市",
    "district": "青县",
    "lon": "116.838384",
    "lat": "38.569646",
    "stationid": "tspDy",
    "province1": "HE",
    "district1": "qingxian"
  },
  {
    "district_id": "130923",
    "province": "河北省",
    "city": "沧州市",
    "district": "东光",
    "lon": "116.542062",
    "lat": "37.88655",
    "stationid": "BRTol",
    "province1": "HE",
    "district1": "dongguang"
  },
  {
    "district_id": "130924",
    "province": "河北省",
    "city": "沧州市",
    "district": "海兴",
    "lon": "117.496606",
    "lat": "38.141582",
    "stationid": "kqMHD",
    "province1": "HE",
    "district1": "haixing"
  },
  {
    "district_id": "130925",
    "province": "河北省",
    "city": "沧州市",
    "district": "盐山",
    "lon": "117.229814",
    "lat": "38.056141",
    "stationid": "lqiAy",
    "province1": "HE",
    "district1": "yanshan"
  },
  {
    "district_id": "130926",
    "province": "河北省",
    "city": "沧州市",
    "district": "肃宁",
    "lon": "115.835856",
    "lat": "38.427102",
    "stationid": "gZrxg",
    "province1": "HE",
    "district1": "suning"
  },
  {
    "district_id": "130927",
    "province": "河北省",
    "city": "沧州市",
    "district": "南皮",
    "lon": "116.709171",
    "lat": "38.042439",
    "stationid": "EtUJU",
    "province1": "HE",
    "district1": "nanpi"
  },
  {
    "district_id": "130928",
    "province": "河北省",
    "city": "沧州市",
    "district": "吴桥",
    "lon": "116.391512",
    "lat": "37.628182",
    "stationid": "MHgRX",
    "province1": "HE",
    "district1": "wuqiao"
  },
  {
    "district_id": "130929",
    "province": "河北省",
    "city": "沧州市",
    "district": "献县",
    "lon": "116.123844",
    "lat": "38.189661",
    "stationid": "KCdLb",
    "province1": "HE",
    "district1": "xianxian"
  },
  {
    "district_id": "130930",
    "province": "河北省",
    "city": "沧州市",
    "district": "孟村",
    "lon": "117.105104",
    "lat": "38.057953",
    "stationid": "gKfij",
    "province1": "HE",
    "district1": "mengcun"
  },
  {
    "district_id": "130981",
    "province": "河北省",
    "city": "沧州市",
    "district": "泊头",
    "lon": "116.570163",
    "lat": "38.073479",
    "stationid": "pSXjM",
    "province1": "HE",
    "district1": "botou"
  },
  {
    "district_id": "130982",
    "province": "河北省",
    "city": "沧州市",
    "district": "任丘",
    "lon": "116.106764",
    "lat": "38.706513",
    "stationid": "nBdMW",
    "province1": "HE",
    "district1": "renqiu"
  },
  {
    "district_id": "130983",
    "province": "河北省",
    "city": "沧州市",
    "district": "黄骅",
    "lon": "117.343803",
    "lat": "38.369238",
    "stationid": "IPsor",
    "province1": "HE",
    "district1": "huangzuo"
  },
  {
    "district_id": "130984",
    "province": "河北省",
    "city": "沧州市",
    "district": "河间",
    "lon": "116.089452",
    "lat": "38.44149",
    "stationid": "pWduF",
    "province1": "HE",
    "district1": "hejian"
  },
  {
    "district_id": "131000",
    "province": "河北省",
    "city": "廊坊市",
    "district": "廊坊",
    "lon": "116.704441",
    "lat": "39.523927",
    "stationid": "gXmTp",
    "province1": "HE",
    "district1": "langfang"
  },
  {
    "district_id": "131002",
    "province": "河北省",
    "city": "廊坊市",
    "district": "安次",
    "lon": "116.694544",
    "lat": "39.502569",
    "stationid": "gXmTp",
    "province1": "HE",
    "district1": "langfang"
  },
  {
    "district_id": "131003",
    "province": "河北省",
    "city": "廊坊市",
    "district": "广阳",
    "lon": "116.713708",
    "lat": "39.521931",
    "stationid": "gXmTp",
    "province1": "HE",
    "district1": "langfang"
  },
  {
    "district_id": "131022",
    "province": "河北省",
    "city": "廊坊市",
    "district": "固安",
    "lon": "116.299894",
    "lat": "39.436468",
    "stationid": "RSzaV",
    "province1": "HE",
    "district1": "guan"
  },
  {
    "district_id": "131023",
    "province": "河北省",
    "city": "廊坊市",
    "district": "永清",
    "lon": "116.498089",
    "lat": "39.319717",
    "stationid": "DaCoA",
    "province1": "HE",
    "district1": "yongqing"
  },
  {
    "district_id": "131024",
    "province": "河北省",
    "city": "廊坊市",
    "district": "香河",
    "lon": "117.007161",
    "lat": "39.757212",
    "stationid": "xWfUk",
    "province1": "HE",
    "district1": "xianghe"
  },
  {
    "district_id": "131025",
    "province": "河北省",
    "city": "廊坊市",
    "district": "大城",
    "lon": "116.640735",
    "lat": "38.699215",
    "stationid": "qitbz",
    "province1": "HE",
    "district1": "dacheng"
  },
  {
    "district_id": "131026",
    "province": "河北省",
    "city": "廊坊市",
    "district": "文安",
    "lon": "116.460107",
    "lat": "38.866801",
    "stationid": "TKCta",
    "province1": "HE",
    "district1": "wenan"
  },
  {
    "district_id": "131028",
    "province": "河北省",
    "city": "廊坊市",
    "district": "大厂",
    "lon": "116.986501",
    "lat": "39.889266",
    "stationid": "VzbqG",
    "province1": "HE",
    "district1": "dachang"
  },
  {
    "district_id": "131081",
    "province": "河北省",
    "city": "廊坊市",
    "district": "霸州",
    "lon": "116.392021",
    "lat": "39.117331",
    "stationid": "kgrJx",
    "province1": "HE",
    "district1": "bazhou"
  },
  {
    "district_id": "131082",
    "province": "河北省",
    "city": "廊坊市",
    "district": "三河",
    "lon": "117.077018",
    "lat": "39.982778",
    "stationid": "qSdEK",
    "province1": "HE",
    "district1": "sanhe"
  },
  {
    "district_id": "131100",
    "province": "河北省",
    "city": "衡水市",
    "district": "衡水",
    "lon": "115.665993",
    "lat": "37.735097",
    "stationid": "Jiheq",
    "province1": "HE",
    "district1": "hengshui"
  },
  {
    "district_id": "131102",
    "province": "河北省",
    "city": "衡水市",
    "district": "桃城",
    "lon": "115.694945",
    "lat": "37.732237",
    "stationid": "Jiheq",
    "province1": "HE",
    "district1": "hengshui"
  },
  {
    "district_id": "131103",
    "province": "河北省",
    "city": "衡水市",
    "district": "冀州",
    "lon": "115.579173",
    "lat": "37.542788",
    "stationid": "qllqX",
    "province1": "HE",
    "district1": "jizhou"
  },
  {
    "district_id": "131121",
    "province": "河北省",
    "city": "衡水市",
    "district": "枣强",
    "lon": "115.726499",
    "lat": "37.511512",
    "stationid": "PZHKx",
    "province1": "HE",
    "district1": "zaoqiang"
  },
  {
    "district_id": "131122",
    "province": "河北省",
    "city": "衡水市",
    "district": "武邑",
    "lon": "115.892415",
    "lat": "37.803774",
    "stationid": "NiqiA",
    "province1": "HE",
    "district1": "wuyi"
  },
  {
    "district_id": "131123",
    "province": "河北省",
    "city": "衡水市",
    "district": "武强",
    "lon": "115.970236",
    "lat": "38.03698",
    "stationid": "KZDpU",
    "province1": "HE",
    "district1": "wuqiang"
  },
  {
    "district_id": "131124",
    "province": "河北省",
    "city": "衡水市",
    "district": "饶阳",
    "lon": "115.726577",
    "lat": "38.232671",
    "stationid": "VyOJb",
    "province1": "HE",
    "district1": "raoyang"
  },
  {
    "district_id": "131125",
    "province": "河北省",
    "city": "衡水市",
    "district": "安平",
    "lon": "115.519627",
    "lat": "38.233511",
    "stationid": "yeGPa",
    "province1": "HE",
    "district1": "anping"
  },
  {
    "district_id": "131126",
    "province": "河北省",
    "city": "衡水市",
    "district": "故城",
    "lon": "115.966747",
    "lat": "37.350981",
    "stationid": "eRflS",
    "province1": "HE",
    "district1": "gucheng"
  },
  {
    "district_id": "131127",
    "province": "河北省",
    "city": "衡水市",
    "district": "景县",
    "lon": "116.258446",
    "lat": "37.686622",
    "stationid": "gMmSA",
    "province1": "HE",
    "district1": "jingxian"
  },
  {
    "district_id": "131128",
    "province": "河北省",
    "city": "衡水市",
    "district": "阜城",
    "lon": "116.164727",
    "lat": "37.869945",
    "stationid": "lOwCw",
    "province1": "HE",
    "district1": "fucheng"
  },
  {
    "district_id": "131182",
    "province": "河北省",
    "city": "衡水市",
    "district": "深州",
    "lon": "115.554596",
    "lat": "38.00347",
    "stationid": "upNrO",
    "province1": "HE",
    "district1": "shenzhou"
  },
  {
    "district_id": "140100",
    "province": "山西省",
    "city": "太原市",
    "district": "太原",
    "lon": "112.549248",
    "lat": "37.857014",
    "stationid": "jmHMK",
    "province1": "SX",
    "district1": "taiyuan"
  },
  {
    "district_id": "140105",
    "province": "山西省",
    "city": "太原市",
    "district": "小店",
    "lon": "112.564273",
    "lat": "37.817974",
    "stationid": "hGDQB",
    "province1": "SX",
    "district1": "xiaodian2"
  },
  {
    "district_id": "140106",
    "province": "山西省",
    "city": "太原市",
    "district": "迎泽",
    "lon": "112.558851",
    "lat": "37.855804",
    "stationid": "hGDQB",
    "province1": "SX",
    "district1": "xiaodian2"
  },
  {
    "district_id": "140107",
    "province": "山西省",
    "city": "太原市",
    "district": "杏花岭",
    "lon": "112.560743",
    "lat": "37.879291",
    "stationid": "hGDQB",
    "province1": "SX",
    "district1": "xiaodian2"
  },
  {
    "district_id": "140108",
    "province": "山西省",
    "city": "太原市",
    "district": "尖草坪",
    "lon": "112.487122",
    "lat": "37.939893",
    "stationid": "ANMfd",
    "province1": "SX",
    "district1": "jiancaoping"
  },
  {
    "district_id": "140109",
    "province": "山西省",
    "city": "太原市",
    "district": "万柏林",
    "lon": "112.522258",
    "lat": "37.862653",
    "stationid": "hGDQB",
    "province1": "SX",
    "district1": "xiaodian2"
  },
  {
    "district_id": "140110",
    "province": "山西省",
    "city": "太原市",
    "district": "晋源",
    "lon": "112.477849",
    "lat": "37.715619",
    "stationid": "ANMfd",
    "province1": "SX",
    "district1": "jiancaoping"
  },
  {
    "district_id": "140121",
    "province": "山西省",
    "city": "太原市",
    "district": "清徐",
    "lon": "112.357961",
    "lat": "37.60729",
    "stationid": "tIwCB",
    "province1": "SX",
    "district1": "qingxu"
  },
  {
    "district_id": "140122",
    "province": "山西省",
    "city": "太原市",
    "district": "阳曲",
    "lon": "112.673818",
    "lat": "38.058797",
    "stationid": "JOoEL",
    "province1": "SX",
    "district1": "yangqu"
  },
  {
    "district_id": "140123",
    "province": "山西省",
    "city": "太原市",
    "district": "娄烦",
    "lon": "111.793798",
    "lat": "38.066035",
    "stationid": "TxZCB",
    "province1": "SX",
    "district1": "loufan"
  },
  {
    "district_id": "140181",
    "province": "山西省",
    "city": "太原市",
    "district": "古交",
    "lon": "112.174353",
    "lat": "37.908534",
    "stationid": "ZCnNp",
    "province1": "SX",
    "district1": "gujiao"
  },
  {
    "district_id": "140200",
    "province": "山西省",
    "city": "大同市",
    "district": "大同",
    "lon": "113.301438",
    "lat": "40.090511",
    "stationid": "VZgct",
    "province1": "SX",
    "district1": "datong"
  },
  {
    "district_id": "140212",
    "province": "山西省",
    "city": "大同市",
    "district": "新荣",
    "lon": "113.141044",
    "lat": "40.258269",
    "stationid": "VZgct",
    "province1": "SX",
    "district1": "datong"
  },
  {
    "district_id": "140213",
    "province": "山西省",
    "city": "大同市",
    "district": "平城",
    "lon": "113.304425",
    "lat": "40.081998",
    "stationid": "VZgct",
    "province1": "SX",
    "district1": "datong"
  },
  {
    "district_id": "140214",
    "province": "山西省",
    "city": "大同市",
    "district": "云冈",
    "lon": "113.1624015",
    "lat": "39.996839",
    "stationid": "VZgct",
    "province1": "SX",
    "district1": "datong"
  },
  {
    "district_id": "140215",
    "province": "山西省",
    "city": "大同市",
    "district": "云州",
    "lon": "113.618471",
    "lat": "40.04623",
    "stationid": "eLCyB",
    "province1": "SX",
    "district1": "yunzhou"
  },
  {
    "district_id": "140221",
    "province": "山西省",
    "city": "大同市",
    "district": "阳高",
    "lon": "113.749871",
    "lat": "40.364927",
    "stationid": "jLWui",
    "province1": "SX",
    "district1": "yanggao"
  },
  {
    "district_id": "140222",
    "province": "山西省",
    "city": "大同市",
    "district": "天镇",
    "lon": "114.09112",
    "lat": "40.421336",
    "stationid": "qtSfk",
    "province1": "SX",
    "district1": "tianzhen"
  },
  {
    "district_id": "140223",
    "province": "山西省",
    "city": "大同市",
    "district": "广灵",
    "lon": "114.279252",
    "lat": "39.763051",
    "stationid": "pbxDH",
    "province1": "SX",
    "district1": "guangling"
  },
  {
    "district_id": "140224",
    "province": "山西省",
    "city": "大同市",
    "district": "灵丘",
    "lon": "114.23576",
    "lat": "39.438867",
    "stationid": "cyeJN",
    "province1": "SX",
    "district1": "lingqiu"
  },
  {
    "district_id": "140225",
    "province": "山西省",
    "city": "大同市",
    "district": "浑源",
    "lon": "113.698091",
    "lat": "39.699099",
    "stationid": "uWhuB",
    "province1": "SX",
    "district1": "hunyuan"
  },
  {
    "district_id": "140226",
    "province": "山西省",
    "city": "大同市",
    "district": "左云",
    "lon": "112.70641",
    "lat": "40.012873",
    "stationid": "bkbPS",
    "province1": "SX",
    "district1": "zuoyun"
  },
  {
    "district_id": "140300",
    "province": "山西省",
    "city": "阳泉市",
    "district": "阳泉",
    "lon": "113.583285",
    "lat": "37.861188",
    "stationid": "rwUnO",
    "province1": "SX",
    "district1": "yangquan"
  },
  {
    "district_id": "140302",
    "province": "山西省",
    "city": "阳泉市",
    "district": "城区",
    "lon": "113.583285",
    "lat": "37.861188",
    "stationid": "rwUnO",
    "province1": "SX",
    "district1": "yangquan"
  },
  {
    "district_id": "140303",
    "province": "山西省",
    "city": "阳泉市",
    "district": "矿区",
    "lon": "113.559066",
    "lat": "37.870085",
    "stationid": "rwUnO",
    "province1": "SX",
    "district1": "yangquan"
  },
  {
    "district_id": "140311",
    "province": "山西省",
    "city": "阳泉市",
    "district": "郊区",
    "lon": "113.58664",
    "lat": "37.94096",
    "stationid": "rwUnO",
    "province1": "SX",
    "district1": "yangquan"
  },
  {
    "district_id": "140321",
    "province": "山西省",
    "city": "阳泉市",
    "district": "平定",
    "lon": "113.631049",
    "lat": "37.800289",
    "stationid": "DFvwn",
    "province1": "SX",
    "district1": "pingding"
  },
  {
    "district_id": "140322",
    "province": "山西省",
    "city": "阳泉市",
    "district": "盂县",
    "lon": "113.41223",
    "lat": "38.086131",
    "stationid": "YZvdq",
    "province1": "SX",
    "district1": "yuxian"
  },
  {
    "district_id": "140400",
    "province": "山西省",
    "city": "长治市",
    "district": "长治",
    "lon": "113.113556",
    "lat": "36.191112",
    "stationid": "dwSMC",
    "province1": "SX",
    "district1": "changzhi"
  },
  {
    "district_id": "140403",
    "province": "山西省",
    "city": "长治市",
    "district": "潞州",
    "lon": "113.129521",
    "lat": "36.209472",
    "stationid": "dwSMC",
    "province1": "SX",
    "district1": "changzhi"
  },
  {
    "district_id": "140404",
    "province": "山西省",
    "city": "长治市",
    "district": "上党",
    "lon": "113.057416",
    "lat": "36.059287",
    "stationid": "FkfwN",
    "province1": "SX",
    "district1": "shangdang"
  },
  {
    "district_id": "140405",
    "province": "山西省",
    "city": "长治市",
    "district": "屯留",
    "lon": "112.892741",
    "lat": "36.314072",
    "stationid": "IUDAF",
    "province1": "SX",
    "district1": "tunliu"
  },
  {
    "district_id": "140406",
    "province": "山西省",
    "city": "长治市",
    "district": "潞城",
    "lon": "113.223245",
    "lat": "36.332233",
    "stationid": "yGPnj",
    "province1": "SX",
    "district1": "lucheng"
  },
  {
    "district_id": "140423",
    "province": "山西省",
    "city": "长治市",
    "district": "襄垣",
    "lon": "113.050094",
    "lat": "36.532854",
    "stationid": "WDsDq",
    "province1": "SX",
    "district1": "xiangyuan"
  },
  {
    "district_id": "140425",
    "province": "山西省",
    "city": "长治市",
    "district": "平顺",
    "lon": "113.438791",
    "lat": "36.200202",
    "stationid": "jWYMB",
    "province1": "SX",
    "district1": "pingshun"
  },
  {
    "district_id": "140426",
    "province": "山西省",
    "city": "长治市",
    "district": "黎城",
    "lon": "113.387366",
    "lat": "36.502971",
    "stationid": "rDABI",
    "province1": "SX",
    "district1": "licheng"
  },
  {
    "district_id": "140427",
    "province": "山西省",
    "city": "长治市",
    "district": "壶关",
    "lon": "113.206138",
    "lat": "36.110938",
    "stationid": "kCXTL",
    "province1": "SX",
    "district1": "huguan"
  },
  {
    "district_id": "140428",
    "province": "山西省",
    "city": "长治市",
    "district": "长子",
    "lon": "112.884656",
    "lat": "36.119484",
    "stationid": "Siujx",
    "province1": "SX",
    "district1": "changzi"
  },
  {
    "district_id": "140429",
    "province": "山西省",
    "city": "长治市",
    "district": "武乡",
    "lon": "112.8653",
    "lat": "36.834315",
    "stationid": "zJdqY",
    "province1": "SX",
    "district1": "wuxiang"
  },
  {
    "district_id": "140430",
    "province": "山西省",
    "city": "长治市",
    "district": "沁县",
    "lon": "112.70138",
    "lat": "36.757123",
    "stationid": "MizAK",
    "province1": "SX",
    "district1": "qinxian"
  },
  {
    "district_id": "140431",
    "province": "山西省",
    "city": "长治市",
    "district": "沁源",
    "lon": "112.340878",
    "lat": "36.500777",
    "stationid": "UEqUT",
    "province1": "SX",
    "district1": "qinyuan"
  },
  {
    "district_id": "140500",
    "province": "山西省",
    "city": "晋城市",
    "district": "晋城",
    "lon": "112.851274",
    "lat": "35.497553",
    "stationid": "VKljS",
    "province1": "SX",
    "district1": "jincheng"
  },
  {
    "district_id": "140502",
    "province": "山西省",
    "city": "晋城市",
    "district": "城区",
    "lon": "112.8514",
    "lat": "35.4976",
    "stationid": "VKljS",
    "province1": "SX",
    "district1": "jincheng"
  },
  {
    "district_id": "140521",
    "province": "山西省",
    "city": "晋城市",
    "district": "沁水",
    "lon": "112.187213",
    "lat": "35.689472",
    "stationid": "hvopq",
    "province1": "SX",
    "district1": "qinshui"
  },
  {
    "district_id": "140522",
    "province": "山西省",
    "city": "晋城市",
    "district": "阳城",
    "lon": "112.422014",
    "lat": "35.482177",
    "stationid": "twIgf",
    "province1": "SX",
    "district1": "yangcheng"
  },
  {
    "district_id": "140524",
    "province": "山西省",
    "city": "晋城市",
    "district": "陵川",
    "lon": "113.278877",
    "lat": "35.775614",
    "stationid": "EeGzR",
    "province1": "SX",
    "district1": "lingchuan"
  },
  {
    "district_id": "140525",
    "province": "山西省",
    "city": "晋城市",
    "district": "泽州",
    "lon": "112.899137",
    "lat": "35.617221",
    "stationid": "RJOci",
    "province1": "SX",
    "district1": "gaoping"
  },
  {
    "district_id": "140581",
    "province": "山西省",
    "city": "晋城市",
    "district": "高平",
    "lon": "112.930691",
    "lat": "35.791355",
    "stationid": "RJOci",
    "province1": "SX",
    "district1": "gaoping"
  },
  {
    "district_id": "140600",
    "province": "山西省",
    "city": "朔州市",
    "district": "朔州",
    "lon": "112.433387",
    "lat": "39.331261",
    "stationid": "OtlfP",
    "province1": "SX",
    "district1": "shuozhou"
  },
  {
    "district_id": "140602",
    "province": "山西省",
    "city": "朔州市",
    "district": "朔城",
    "lon": "112.428676",
    "lat": "39.324525",
    "stationid": "OtlfP",
    "province1": "SX",
    "district1": "shuozhou"
  },
  {
    "district_id": "140603",
    "province": "山西省",
    "city": "朔州市",
    "district": "平鲁",
    "lon": "112.295227",
    "lat": "39.515603",
    "stationid": "oJway",
    "province1": "SX",
    "district1": "pinglu1"
  },
  {
    "district_id": "140621",
    "province": "山西省",
    "city": "朔州市",
    "district": "山阴",
    "lon": "112.816396",
    "lat": "39.52677",
    "stationid": "KXQMd",
    "province1": "SX",
    "district1": "shanyin"
  },
  {
    "district_id": "140622",
    "province": "山西省",
    "city": "朔州市",
    "district": "应县",
    "lon": "113.187505",
    "lat": "39.559187",
    "stationid": "LVEDc",
    "province1": "SX",
    "district1": "yingxian"
  },
  {
    "district_id": "140623",
    "province": "山西省",
    "city": "朔州市",
    "district": "右玉",
    "lon": "112.465588",
    "lat": "39.988812",
    "stationid": "cXBlU",
    "province1": "SX",
    "district1": "youyu"
  },
  {
    "district_id": "140681",
    "province": "山西省",
    "city": "朔州市",
    "district": "怀仁",
    "lon": "113.100512",
    "lat": "39.82079",
    "stationid": "Ggdzs",
    "province1": "SX",
    "district1": "huairen"
  },
  {
    "district_id": "140700",
    "province": "山西省",
    "city": "晋中市",
    "district": "晋中",
    "lon": "112.736465",
    "lat": "37.696495",
    "stationid": "ovSsu",
    "province1": "SX",
    "district1": "jinzhong"
  },
  {
    "district_id": "140702",
    "province": "山西省",
    "city": "晋中市",
    "district": "榆次",
    "lon": "112.740056",
    "lat": "37.6976",
    "stationid": "CKjmA",
    "province1": "SX",
    "district1": "yuci"
  },
  {
    "district_id": "140721",
    "province": "山西省",
    "city": "晋中市",
    "district": "榆社",
    "lon": "112.973521",
    "lat": "37.069019",
    "stationid": "mQwJl",
    "province1": "SX",
    "district1": "yushe"
  },
  {
    "district_id": "140722",
    "province": "山西省",
    "city": "晋中市",
    "district": "左权",
    "lon": "113.377834",
    "lat": "37.079672",
    "stationid": "VFmuE",
    "province1": "SX",
    "district1": "zuoquan"
  },
  {
    "district_id": "140723",
    "province": "山西省",
    "city": "晋中市",
    "district": "和顺",
    "lon": "113.572919",
    "lat": "37.327027",
    "stationid": "tOgRV",
    "province1": "SX",
    "district1": "heshun"
  },
  {
    "district_id": "140724",
    "province": "山西省",
    "city": "晋中市",
    "district": "昔阳",
    "lon": "113.706166",
    "lat": "37.60437",
    "stationid": "ThJbh",
    "province1": "SX",
    "district1": "xiyang"
  },
  {
    "district_id": "140725",
    "province": "山西省",
    "city": "晋中市",
    "district": "寿阳",
    "lon": "113.177708",
    "lat": "37.891136",
    "stationid": "FlXtf",
    "province1": "SX",
    "district1": "shouyang"
  },
  {
    "district_id": "140726",
    "province": "山西省",
    "city": "晋中市",
    "district": "太谷",
    "lon": "112.554103",
    "lat": "37.424595",
    "stationid": "kfLqv",
    "province1": "SX",
    "district1": "taigu"
  },
  {
    "district_id": "140727",
    "province": "山西省",
    "city": "晋中市",
    "district": "祁县",
    "lon": "112.330532",
    "lat": "37.358739",
    "stationid": "gBnmM",
    "province1": "SX",
    "district1": "qixian"
  },
  {
    "district_id": "140728",
    "province": "山西省",
    "city": "晋中市",
    "district": "平遥",
    "lon": "112.174059",
    "lat": "37.195474",
    "stationid": "ShbMD",
    "province1": "SX",
    "district1": "pingyao"
  },
  {
    "district_id": "140729",
    "province": "山西省",
    "city": "晋中市",
    "district": "灵石",
    "lon": "111.772759",
    "lat": "36.847469",
    "stationid": "sGCZR",
    "province1": "SX",
    "district1": "lingshi"
  },
  {
    "district_id": "140781",
    "province": "山西省",
    "city": "晋中市",
    "district": "介休",
    "lon": "111.913857",
    "lat": "37.027616",
    "stationid": "KqHyx",
    "province1": "SX",
    "district1": "jiexiu"
  },
  {
    "district_id": "140800",
    "province": "山西省",
    "city": "运城市",
    "district": "运城",
    "lon": "111.003957",
    "lat": "35.022778",
    "stationid": "AupnI",
    "province1": "SX",
    "district1": "yuncheng"
  },
  {
    "district_id": "140802",
    "province": "山西省",
    "city": "运城市",
    "district": "盐湖",
    "lon": "111.000627",
    "lat": "35.025643",
    "stationid": "AupnI",
    "province1": "SX",
    "district1": "yuncheng"
  },
  {
    "district_id": "140821",
    "province": "山西省",
    "city": "运城市",
    "district": "临猗",
    "lon": "110.77493",
    "lat": "35.141883",
    "stationid": "hGfmL",
    "province1": "SX",
    "district1": "linzuo"
  },
  {
    "district_id": "140822",
    "province": "山西省",
    "city": "运城市",
    "district": "万荣",
    "lon": "110.843561",
    "lat": "35.417042",
    "stationid": "lSPZr",
    "province1": "SX",
    "district1": "wanrong"
  },
  {
    "district_id": "140823",
    "province": "山西省",
    "city": "运城市",
    "district": "闻喜",
    "lon": "111.220306",
    "lat": "35.353839",
    "stationid": "lWKfw",
    "province1": "SX",
    "district1": "wenxi"
  },
  {
    "district_id": "140824",
    "province": "山西省",
    "city": "运城市",
    "district": "稷山",
    "lon": "110.978996",
    "lat": "35.600412",
    "stationid": "FJUIg",
    "province1": "SX",
    "district1": "zuoshan"
  },
  {
    "district_id": "140825",
    "province": "山西省",
    "city": "运城市",
    "district": "新绛",
    "lon": "111.225205",
    "lat": "35.613697",
    "stationid": "wHrOw",
    "province1": "SX",
    "district1": "xinzuo"
  },
  {
    "district_id": "140826",
    "province": "山西省",
    "city": "运城市",
    "district": "绛县",
    "lon": "111.576182",
    "lat": "35.49045",
    "stationid": "JpoNT",
    "province1": "SX",
    "district1": "zuoxian3"
  },
  {
    "district_id": "140827",
    "province": "山西省",
    "city": "运城市",
    "district": "垣曲",
    "lon": "111.67099",
    "lat": "35.298293",
    "stationid": "HbPQe",
    "province1": "SX",
    "district1": "yuanqu"
  },
  {
    "district_id": "140828",
    "province": "山西省",
    "city": "运城市",
    "district": "夏县",
    "lon": "111.223174",
    "lat": "35.140441",
    "stationid": "LetlZ",
    "province1": "SX",
    "district1": "xiaxian"
  },
  {
    "district_id": "140829",
    "province": "山西省",
    "city": "运城市",
    "district": "平陆",
    "lon": "111.212377",
    "lat": "34.837256",
    "stationid": "PFPpH",
    "province1": "SX",
    "district1": "pinglu2"
  },
  {
    "district_id": "140830",
    "province": "山西省",
    "city": "运城市",
    "district": "芮城",
    "lon": "110.69114",
    "lat": "34.694769",
    "stationid": "reeTF",
    "province1": "SX",
    "district1": "zuocheng"
  },
  {
    "district_id": "140881",
    "province": "山西省",
    "city": "运城市",
    "district": "永济",
    "lon": "110.447984",
    "lat": "34.865125",
    "stationid": "QGpNZ",
    "province1": "SX",
    "district1": "yongji"
  },
  {
    "district_id": "140882",
    "province": "山西省",
    "city": "运城市",
    "district": "河津",
    "lon": "110.710268",
    "lat": "35.59715",
    "stationid": "oblOm",
    "province1": "SX",
    "district1": "hejin"
  },
  {
    "district_id": "140900",
    "province": "山西省",
    "city": "忻州市",
    "district": "忻州",
    "lon": "112.733538",
    "lat": "38.41769",
    "stationid": "twMEQ",
    "province1": "SX",
    "district1": "xinzhou"
  },
  {
    "district_id": "140902",
    "province": "山西省",
    "city": "忻州市",
    "district": "忻府",
    "lon": "112.734112",
    "lat": "38.417743",
    "stationid": "lkWYa",
    "province1": "SX",
    "district1": "xinfu"
  },
  {
    "district_id": "140921",
    "province": "山西省",
    "city": "忻州市",
    "district": "定襄",
    "lon": "112.963231",
    "lat": "38.484948",
    "stationid": "NkWQP",
    "province1": "SX",
    "district1": "dingxiang"
  },
  {
    "district_id": "140922",
    "province": "山西省",
    "city": "忻州市",
    "district": "五台",
    "lon": "113.259012",
    "lat": "38.725711",
    "stationid": "AMKDZ",
    "province1": "SX",
    "district1": "wutai"
  },
  {
    "district_id": "140923",
    "province": "山西省",
    "city": "忻州市",
    "district": "代县",
    "lon": "112.962519",
    "lat": "39.065138",
    "stationid": "atrjZ",
    "province1": "SX",
    "district1": "daixian"
  },
  {
    "district_id": "140924",
    "province": "山西省",
    "city": "忻州市",
    "district": "繁峙",
    "lon": "113.267707",
    "lat": "39.188104",
    "stationid": "OTNAe",
    "province1": "SX",
    "district1": "fanzhi"
  },
  {
    "district_id": "140925",
    "province": "山西省",
    "city": "忻州市",
    "district": "宁武",
    "lon": "112.307936",
    "lat": "39.001718",
    "stationid": "CRNDj",
    "province1": "SX",
    "district1": "ningwu"
  },
  {
    "district_id": "140926",
    "province": "山西省",
    "city": "忻州市",
    "district": "静乐",
    "lon": "111.940231",
    "lat": "38.355947",
    "stationid": "KcsUl",
    "province1": "SX",
    "district1": "jingle"
  },
  {
    "district_id": "140927",
    "province": "山西省",
    "city": "忻州市",
    "district": "神池",
    "lon": "112.200438",
    "lat": "39.088467",
    "stationid": "tBsIw",
    "province1": "SX",
    "district1": "shenchi"
  },
  {
    "district_id": "140928",
    "province": "山西省",
    "city": "忻州市",
    "district": "五寨",
    "lon": "111.841015",
    "lat": "38.912761",
    "stationid": "vMDNU",
    "province1": "SX",
    "district1": "wuzhai"
  },
  {
    "district_id": "140929",
    "province": "山西省",
    "city": "忻州市",
    "district": "岢岚",
    "lon": "111.56981",
    "lat": "38.705625",
    "stationid": "ucItd",
    "province1": "SX",
    "district1": "zuozuo"
  },
  {
    "district_id": "140930",
    "province": "山西省",
    "city": "忻州市",
    "district": "河曲",
    "lon": "111.146609",
    "lat": "39.381895",
    "stationid": "HvYyw",
    "province1": "SX",
    "district1": "hequ"
  },
  {
    "district_id": "140931",
    "province": "山西省",
    "city": "忻州市",
    "district": "保德",
    "lon": "111.085688",
    "lat": "39.022576",
    "stationid": "JXVvw",
    "province1": "SX",
    "district1": "baode"
  },
  {
    "district_id": "140932",
    "province": "山西省",
    "city": "忻州市",
    "district": "偏关",
    "lon": "111.500477",
    "lat": "39.442153",
    "stationid": "ygqJc",
    "province1": "SX",
    "district1": "pianguan"
  },
  {
    "district_id": "140981",
    "province": "山西省",
    "city": "忻州市",
    "district": "原平",
    "lon": "112.713132",
    "lat": "38.729186",
    "stationid": "ENVfK",
    "province1": "SX",
    "district1": "yuanping"
  },
  {
    "district_id": "141000",
    "province": "山西省",
    "city": "临汾市",
    "district": "临汾",
    "lon": "111.517973",
    "lat": "36.08415",
    "stationid": "nhsiM",
    "province1": "SX",
    "district1": "linfen"
  },
  {
    "district_id": "141002",
    "province": "山西省",
    "city": "临汾市",
    "district": "尧都",
    "lon": "111.522945",
    "lat": "36.080366",
    "stationid": "nhsiM",
    "province1": "SX",
    "district1": "linfen"
  },
  {
    "district_id": "141021",
    "province": "山西省",
    "city": "临汾市",
    "district": "曲沃",
    "lon": "111.475529",
    "lat": "35.641387",
    "stationid": "OYMED",
    "province1": "SX",
    "district1": "quwo"
  },
  {
    "district_id": "141022",
    "province": "山西省",
    "city": "临汾市",
    "district": "翼城",
    "lon": "111.713508",
    "lat": "35.738621",
    "stationid": "VXrqE",
    "province1": "SX",
    "district1": "yicheng"
  },
  {
    "district_id": "141023",
    "province": "山西省",
    "city": "临汾市",
    "district": "襄汾",
    "lon": "111.442932",
    "lat": "35.876139",
    "stationid": "ZlvFx",
    "province1": "SX",
    "district1": "xiangfen"
  },
  {
    "district_id": "141024",
    "province": "山西省",
    "city": "临汾市",
    "district": "洪洞",
    "lon": "111.673692",
    "lat": "36.255742",
    "stationid": "mwSUY",
    "province1": "SX",
    "district1": "hongdong"
  },
  {
    "district_id": "141025",
    "province": "山西省",
    "city": "临汾市",
    "district": "古县",
    "lon": "111.920207",
    "lat": "36.26855",
    "stationid": "FCrZy",
    "province1": "SX",
    "district1": "guxian"
  },
  {
    "district_id": "141026",
    "province": "山西省",
    "city": "临汾市",
    "district": "安泽",
    "lon": "112.251372",
    "lat": "36.146032",
    "stationid": "KSSLi",
    "province1": "SX",
    "district1": "anze"
  },
  {
    "district_id": "141027",
    "province": "山西省",
    "city": "临汾市",
    "district": "浮山",
    "lon": "111.850039",
    "lat": "35.971359",
    "stationid": "MYXsS",
    "province1": "SX",
    "district1": "fushan"
  },
  {
    "district_id": "141028",
    "province": "山西省",
    "city": "临汾市",
    "district": "吉县",
    "lon": "110.682853",
    "lat": "36.099355",
    "stationid": "AFVkU",
    "province1": "SX",
    "district1": "jixian"
  },
  {
    "district_id": "141029",
    "province": "山西省",
    "city": "临汾市",
    "district": "乡宁",
    "lon": "110.857365",
    "lat": "35.975402",
    "stationid": "fwMED",
    "province1": "SX",
    "district1": "xiangning"
  },
  {
    "district_id": "141030",
    "province": "山西省",
    "city": "临汾市",
    "district": "大宁",
    "lon": "110.751283",
    "lat": "36.46383",
    "stationid": "ekOlr",
    "province1": "SX",
    "district1": "daning"
  },
  {
    "district_id": "141031",
    "province": "山西省",
    "city": "临汾市",
    "district": "隰县",
    "lon": "110.935809",
    "lat": "36.692675",
    "stationid": "WVCsi",
    "province1": "SX",
    "district1": "zuoxian2"
  },
  {
    "district_id": "141032",
    "province": "山西省",
    "city": "临汾市",
    "district": "永和",
    "lon": "110.631276",
    "lat": "36.760614",
    "stationid": "Xmsxf",
    "province1": "SX",
    "district1": "yonghe"
  },
  {
    "district_id": "141033",
    "province": "山西省",
    "city": "临汾市",
    "district": "蒲县",
    "lon": "111.09733",
    "lat": "36.411682",
    "stationid": "mxfxi",
    "province1": "SX",
    "district1": "puxian"
  },
  {
    "district_id": "141034",
    "province": "山西省",
    "city": "临汾市",
    "district": "汾西",
    "lon": "111.563021",
    "lat": "36.653368",
    "stationid": "ZqAPc",
    "province1": "SX",
    "district1": "fenxi"
  },
  {
    "district_id": "141081",
    "province": "山西省",
    "city": "临汾市",
    "district": "侯马",
    "lon": "111.371272",
    "lat": "35.620302",
    "stationid": "ZGhqJ",
    "province1": "SX",
    "district1": "houma"
  },
  {
    "district_id": "141082",
    "province": "山西省",
    "city": "临汾市",
    "district": "霍州",
    "lon": "111.723103",
    "lat": "36.57202",
    "stationid": "DiJSX",
    "province1": "SX",
    "district1": "huozhou"
  },
  {
    "district_id": "141100",
    "province": "山西省",
    "city": "吕梁市",
    "district": "吕梁",
    "lon": "111.134335",
    "lat": "37.524366",
    "stationid": "EQQRH",
    "province1": "SX",
    "district1": "lvliang"
  },
  {
    "district_id": "141102",
    "province": "山西省",
    "city": "吕梁市",
    "district": "离石",
    "lon": "111.134462",
    "lat": "37.524037",
    "stationid": "lOfKI",
    "province1": "SX",
    "district1": "lishi"
  },
  {
    "district_id": "141121",
    "province": "山西省",
    "city": "吕梁市",
    "district": "文水",
    "lon": "112.032595",
    "lat": "37.436314",
    "stationid": "NFJlP",
    "province1": "SX",
    "district1": "wenshui"
  },
  {
    "district_id": "141122",
    "province": "山西省",
    "city": "吕梁市",
    "district": "交城",
    "lon": "112.159154",
    "lat": "37.555155",
    "stationid": "HHUAJ",
    "province1": "SX",
    "district1": "jiaocheng"
  },
  {
    "district_id": "141123",
    "province": "山西省",
    "city": "吕梁市",
    "district": "兴县",
    "lon": "111.124816",
    "lat": "38.464136",
    "stationid": "RBGVZ",
    "province1": "SX",
    "district1": "xingxian"
  },
  {
    "district_id": "141124",
    "province": "山西省",
    "city": "吕梁市",
    "district": "临县",
    "lon": "110.995963",
    "lat": "37.960806",
    "stationid": "bAyTQ",
    "province1": "SX",
    "district1": "linxian"
  },
  {
    "district_id": "141125",
    "province": "山西省",
    "city": "吕梁市",
    "district": "柳林",
    "lon": "110.89613",
    "lat": "37.431664",
    "stationid": "aKlRm",
    "province1": "SX",
    "district1": "liulin"
  },
  {
    "district_id": "141126",
    "province": "山西省",
    "city": "吕梁市",
    "district": "石楼",
    "lon": "110.837119",
    "lat": "36.999426",
    "stationid": "CEGWS",
    "province1": "SX",
    "district1": "shilou"
  },
  {
    "district_id": "141127",
    "province": "山西省",
    "city": "吕梁市",
    "district": "岚县",
    "lon": "111.671555",
    "lat": "38.278654",
    "stationid": "Prpqh",
    "province1": "SX",
    "district1": "zuoxian1"
  },
  {
    "district_id": "141128",
    "province": "山西省",
    "city": "吕梁市",
    "district": "方山",
    "lon": "111.238885",
    "lat": "37.892632",
    "stationid": "zAYzL",
    "province1": "SX",
    "district1": "fangshan"
  },
  {
    "district_id": "141129",
    "province": "山西省",
    "city": "吕梁市",
    "district": "中阳",
    "lon": "111.193319",
    "lat": "37.342054",
    "stationid": "QOTQG",
    "province1": "SX",
    "district1": "zhongyang"
  },
  {
    "district_id": "141130",
    "province": "山西省",
    "city": "吕梁市",
    "district": "交口",
    "lon": "111.183188",
    "lat": "36.983068",
    "stationid": "RAxFj",
    "province1": "SX",
    "district1": "jiaokou"
  },
  {
    "district_id": "141181",
    "province": "山西省",
    "city": "吕梁市",
    "district": "孝义",
    "lon": "111.781568",
    "lat": "37.144474",
    "stationid": "VtRVI",
    "province1": "SX",
    "district1": "xiaoyi"
  },
  {
    "district_id": "141182",
    "province": "山西省",
    "city": "吕梁市",
    "district": "汾阳",
    "lon": "111.785273",
    "lat": "37.267742",
    "stationid": "SsPhi",
    "province1": "SX",
    "district1": "fenyang"
  },
  {
    "district_id": "150100",
    "province": "内蒙古自治区",
    "city": "呼和浩特市",
    "district": "呼和浩特",
    "lon": "111.670801",
    "lat": "40.818311",
    "stationid": "IlyWx",
    "province1": "NM",
    "district1": "saihan1"
  },
  {
    "district_id": "150102",
    "province": "内蒙古自治区",
    "city": "呼和浩特市",
    "district": "新城区",
    "lon": "111.685964",
    "lat": "40.826225",
    "stationid": "IlyWx",
    "province1": "NM",
    "district1": "saihan1"
  },
  {
    "district_id": "150103",
    "province": "内蒙古自治区",
    "city": "呼和浩特市",
    "district": "回民区",
    "lon": "111.662162",
    "lat": "40.815149",
    "stationid": "IlyWx",
    "province1": "NM",
    "district1": "saihan1"
  },
  {
    "district_id": "150104",
    "province": "内蒙古自治区",
    "city": "呼和浩特市",
    "district": "玉泉区",
    "lon": "111.66543",
    "lat": "40.799421",
    "stationid": "IlyWx",
    "province1": "NM",
    "district1": "saihan1"
  },
  {
    "district_id": "150105",
    "province": "内蒙古自治区",
    "city": "呼和浩特市",
    "district": "赛罕区",
    "lon": "111.698463",
    "lat": "40.807834",
    "stationid": "IlyWx",
    "province1": "NM",
    "district1": "saihan2"
  },
  {
    "district_id": "150121",
    "province": "内蒙古自治区",
    "city": "呼和浩特市",
    "district": "土左旗",
    "lon": "111.09",
    "lat": "40.41",
    "stationid": "PKpIA",
    "province1": "NM",
    "district1": "tuoketuo"
  },
  {
    "district_id": "150122",
    "province": "内蒙古自治区",
    "city": "呼和浩特市",
    "district": "托克托",
    "lon": "111.11",
    "lat": "40.16",
    "stationid": "PKpIA",
    "province1": "NM",
    "district1": "tuoketuo"
  },
  {
    "district_id": "150123",
    "province": "内蒙古自治区",
    "city": "呼和浩特市",
    "district": "和林格尔",
    "lon": "111.824143",
    "lat": "40.380288",
    "stationid": "kdzjw",
    "province1": "NM",
    "district1": "qingshuihe"
  },
  {
    "district_id": "150124",
    "province": "内蒙古自治区",
    "city": "呼和浩特市",
    "district": "清水河",
    "lon": "111.67222",
    "lat": "39.912479",
    "stationid": "kdzjw",
    "province1": "NM",
    "district1": "qingshuihe"
  },
  {
    "district_id": "150125",
    "province": "内蒙古自治区",
    "city": "呼和浩特市",
    "district": "武川",
    "lon": "111.456563",
    "lat": "41.094483",
    "stationid": "LDamn",
    "province1": "NM",
    "district1": "wuchuan"
  },
  {
    "district_id": "150200",
    "province": "内蒙古自治区",
    "city": "包头市",
    "district": "包头",
    "lon": "109.840405",
    "lat": "40.658168",
    "stationid": "wzspS",
    "province1": "NM",
    "district1": "baotou"
  },
  {
    "district_id": "150202",
    "province": "内蒙古自治区",
    "city": "包头市",
    "district": "东河区",
    "lon": "110.026895",
    "lat": "40.587056",
    "stationid": "wzspS",
    "province1": "NM",
    "district1": "baotou"
  },
  {
    "district_id": "150203",
    "province": "内蒙古自治区",
    "city": "包头市",
    "district": "昆都仑区",
    "lon": "109.822932",
    "lat": "40.661345",
    "stationid": "wzspS",
    "province1": "NM",
    "district1": "baotou"
  },
  {
    "district_id": "150204",
    "province": "内蒙古自治区",
    "city": "包头市",
    "district": "青山区",
    "lon": "109.880049",
    "lat": "40.668558",
    "stationid": "wzspS",
    "province1": "NM",
    "district1": "baotou"
  },
  {
    "district_id": "150205",
    "province": "内蒙古自治区",
    "city": "包头市",
    "district": "石拐区",
    "lon": "110.272565",
    "lat": "40.672094",
    "stationid": "wzspS",
    "province1": "NM",
    "district1": "baotou"
  },
  {
    "district_id": "150206",
    "province": "内蒙古自治区",
    "city": "包头市",
    "district": "白云鄂博",
    "lon": "109.97016",
    "lat": "41.769246",
    "stationid": "tPIAd",
    "province1": "NM",
    "district1": "baiyunebo"
  },
  {
    "district_id": "150207",
    "province": "内蒙古自治区",
    "city": "包头市",
    "district": "九原区",
    "lon": "109.968122",
    "lat": "40.600581",
    "stationid": "tPIAd",
    "province1": "NM",
    "district1": "baiyunebo"
  },
  {
    "district_id": "150221",
    "province": "内蒙古自治区",
    "city": "包头市",
    "district": "土右旗",
    "lon": "110.32",
    "lat": "40.33",
    "stationid": "tPIAd",
    "province1": "NM",
    "district1": "baiyunebo"
  },
  {
    "district_id": "150222",
    "province": "内蒙古自治区",
    "city": "包头市",
    "district": "固阳",
    "lon": "110.063421",
    "lat": "41.030004",
    "stationid": "WyJDB",
    "province1": "NM",
    "district1": "guyang"
  },
  {
    "district_id": "150223",
    "province": "内蒙古自治区",
    "city": "包头市",
    "district": "达茂旗",
    "lon": "110.26",
    "lat": "41.42",
    "stationid": "WyJDB",
    "province1": "NM",
    "district1": "guyang"
  },
  {
    "district_id": "150300",
    "province": "内蒙古自治区",
    "city": "乌海市",
    "district": "乌海",
    "lon": "106.825563",
    "lat": "39.673734",
    "stationid": "HfJln",
    "province1": "NM",
    "district1": "wuhai"
  },
  {
    "district_id": "150302",
    "province": "内蒙古自治区",
    "city": "乌海市",
    "district": "海勃湾区",
    "lon": "106.817762",
    "lat": "39.673527",
    "stationid": "HfJln",
    "province1": "NM",
    "district1": "wuhai"
  },
  {
    "district_id": "150303",
    "province": "内蒙古自治区",
    "city": "乌海市",
    "district": "海南区",
    "lon": "106.884789",
    "lat": "39.44153",
    "stationid": "HfJln",
    "province1": "NM",
    "district1": "wuhai"
  },
  {
    "district_id": "150304",
    "province": "内蒙古自治区",
    "city": "乌海市",
    "district": "乌达",
    "lon": "106.722711",
    "lat": "39.502288",
    "stationid": "HfJln",
    "province1": "NM",
    "district1": "wuhai"
  },
  {
    "district_id": "150400",
    "province": "内蒙古自治区",
    "city": "赤峰市",
    "district": "赤峰",
    "lon": "118.956806",
    "lat": "42.275317",
    "stationid": "yiSxk",
    "province1": "NM",
    "district1": "chifeng"
  },
  {
    "district_id": "150402",
    "province": "内蒙古自治区",
    "city": "赤峰市",
    "district": "红山",
    "lon": "118.961087",
    "lat": "42.269732",
    "stationid": "yiSxk",
    "province1": "NM",
    "district1": "chifeng"
  },
  {
    "district_id": "150403",
    "province": "内蒙古自治区",
    "city": "赤峰市",
    "district": "元宝山",
    "lon": "119.289877",
    "lat": "42.041168",
    "stationid": "yiSxk",
    "province1": "NM",
    "district1": "chifeng"
  },
  {
    "district_id": "150404",
    "province": "内蒙古自治区",
    "city": "赤峰市",
    "district": "松山",
    "lon": "118.938958",
    "lat": "42.281046",
    "stationid": "yiSxk",
    "province1": "NM",
    "district1": "chifeng"
  },
  {
    "district_id": "150421",
    "province": "内蒙古自治区",
    "city": "赤峰市",
    "district": "阿鲁旗",
    "lon": "120.03",
    "lat": "43.53",
    "stationid": "ekOdZ",
    "province1": "NM",
    "district1": "balinzuoqi"
  },
  {
    "district_id": "150422",
    "province": "内蒙古自治区",
    "city": "赤峰市",
    "district": "巴林左旗",
    "lon": "119.391737",
    "lat": "43.980715",
    "stationid": "ekOdZ",
    "province1": "NM",
    "district1": "balinzuoqi"
  },
  {
    "district_id": "150423",
    "province": "内蒙古自治区",
    "city": "赤峰市",
    "district": "巴林右旗",
    "lon": "118.678347",
    "lat": "43.528963",
    "stationid": "tUiFh",
    "province1": "NM",
    "district1": "balinyouqi"
  },
  {
    "district_id": "150424",
    "province": "内蒙古自治区",
    "city": "赤峰市",
    "district": "林西",
    "lon": "118.05775",
    "lat": "43.605326",
    "stationid": "pVsnu",
    "province1": "NM",
    "district1": "linxi"
  },
  {
    "district_id": "150425",
    "province": "内蒙古自治区",
    "city": "赤峰市",
    "district": "克什克腾旗",
    "lon": "117.542465",
    "lat": "43.256233",
    "stationid": "bZqhw",
    "province1": "NM",
    "district1": "keshiketengqi"
  },
  {
    "district_id": "150426",
    "province": "内蒙古自治区",
    "city": "赤峰市",
    "district": "翁牛特旗",
    "lon": "119.022619",
    "lat": "42.937128",
    "stationid": "GVRzp",
    "province1": "NM",
    "district1": "wengniuteqi"
  },
  {
    "district_id": "150428",
    "province": "内蒙古自治区",
    "city": "赤峰市",
    "district": "喀喇沁旗",
    "lon": "118.708572",
    "lat": "41.92778",
    "stationid": "FDRnn",
    "province1": "NM",
    "district1": "kalaqinqi"
  },
  {
    "district_id": "150429",
    "province": "内蒙古自治区",
    "city": "赤峰市",
    "district": "宁城",
    "lon": "119.339242",
    "lat": "41.598692",
    "stationid": "PgPDX",
    "province1": "NM",
    "district1": "ningcheng"
  },
  {
    "district_id": "150430",
    "province": "内蒙古自治区",
    "city": "赤峰市",
    "district": "敖汉旗",
    "lon": "119.906486",
    "lat": "42.287012",
    "stationid": "luTCQ",
    "province1": "NM",
    "district1": "aohanqi"
  },
  {
    "district_id": "150500",
    "province": "内蒙古自治区",
    "city": "通辽市",
    "district": "通辽",
    "lon": "122.263119",
    "lat": "43.617429",
    "stationid": "LUAqU",
    "province1": "NM",
    "district1": "tongliao"
  },
  {
    "district_id": "150502",
    "province": "内蒙古自治区",
    "city": "通辽市",
    "district": "科尔沁区",
    "lon": "121.472818",
    "lat": "45.059645",
    "stationid": "LUAqU",
    "province1": "NM",
    "district1": "tongliao"
  },
  {
    "district_id": "150521",
    "province": "内蒙古自治区",
    "city": "通辽市",
    "district": "科左中旗",
    "lon": "123.18",
    "lat": "44.08",
    "stationid": "ZBZEe",
    "province1": "NM",
    "district1": "kezuozhongqi"
  },
  {
    "district_id": "150522",
    "province": "内蒙古自治区",
    "city": "通辽市",
    "district": "科左后旗",
    "lon": "122.21",
    "lat": "42.58",
    "stationid": "dYsXY",
    "province1": "NM",
    "district1": "kezuohouqi"
  },
  {
    "district_id": "150523",
    "province": "内蒙古自治区",
    "city": "通辽市",
    "district": "开鲁",
    "lon": "121.308797",
    "lat": "43.602432",
    "stationid": "EXBSC",
    "province1": "NM",
    "district1": "kailu"
  },
  {
    "district_id": "150524",
    "province": "内蒙古自治区",
    "city": "通辽市",
    "district": "库伦旗",
    "lon": "121.774886",
    "lat": "42.734692",
    "stationid": "ldsso",
    "province1": "NM",
    "district1": "kulunqi"
  },
  {
    "district_id": "150525",
    "province": "内蒙古自治区",
    "city": "通辽市",
    "district": "奈曼旗",
    "lon": "120.662543",
    "lat": "42.84685",
    "stationid": "iBrpm",
    "province1": "NM",
    "district1": "naimanqi"
  },
  {
    "district_id": "150526",
    "province": "内蒙古自治区",
    "city": "通辽市",
    "district": "扎鲁特旗",
    "lon": "120.905275",
    "lat": "44.555294",
    "stationid": "KhOia",
    "province1": "NM",
    "district1": "zhaluteqi"
  },
  {
    "district_id": "150581",
    "province": "内蒙古自治区",
    "city": "通辽市",
    "district": "霍林郭勒",
    "lon": "119.657862",
    "lat": "45.532361",
    "stationid": "NyoHN",
    "province1": "NM",
    "district1": "huolinguole"
  },
  {
    "district_id": "150600",
    "province": "内蒙古自治区",
    "city": "鄂尔多斯市",
    "district": "鄂尔多斯",
    "lon": "109.99029",
    "lat": "39.817179",
    "stationid": "cSBaZ",
    "province1": "NM",
    "district1": "eerduosi"
  },
  {
    "district_id": "150602",
    "province": "内蒙古自治区",
    "city": "鄂尔多斯市",
    "district": "东胜",
    "lon": "109.98945",
    "lat": "39.81788",
    "stationid": "RPPfG",
    "province1": "NM",
    "district1": "dongsheng"
  },
  {
    "district_id": "150603",
    "province": "内蒙古自治区",
    "city": "鄂尔多斯市",
    "district": "康巴什",
    "lon": "109.868118",
    "lat": "39.615711",
    "stationid": "RPPfG",
    "province1": "NM",
    "district1": "dongsheng"
  },
  {
    "district_id": "150621",
    "province": "内蒙古自治区",
    "city": "鄂尔多斯市",
    "district": "达拉特旗",
    "lon": "110.040281",
    "lat": "40.404076",
    "stationid": "GQBuT",
    "province1": "NM",
    "district1": "dalateqi"
  },
  {
    "district_id": "150622",
    "province": "内蒙古自治区",
    "city": "鄂尔多斯市",
    "district": "准格尔旗",
    "lon": "111.238332",
    "lat": "39.865221",
    "stationid": "mrfbj",
    "province1": "NM",
    "district1": "zhungeerqi"
  },
  {
    "district_id": "150623",
    "province": "内蒙古自治区",
    "city": "鄂尔多斯市",
    "district": "鄂前旗",
    "lon": "107.29",
    "lat": "38.11",
    "stationid": "EoybG",
    "province1": "NM",
    "district1": "etuokeqi"
  },
  {
    "district_id": "150624",
    "province": "内蒙古自治区",
    "city": "鄂尔多斯市",
    "district": "鄂托克旗",
    "lon": "107.982604",
    "lat": "39.095752",
    "stationid": "EoybG",
    "province1": "NM",
    "district1": "etuokeqi"
  },
  {
    "district_id": "150625",
    "province": "内蒙古自治区",
    "city": "鄂尔多斯市",
    "district": "杭锦旗",
    "lon": "108.736324",
    "lat": "39.831789",
    "stationid": "SycQs",
    "province1": "NM",
    "district1": "hangjinqi"
  },
  {
    "district_id": "150626",
    "province": "内蒙古自治区",
    "city": "鄂尔多斯市",
    "district": "乌审旗",
    "lon": "108.842454",
    "lat": "38.596611",
    "stationid": "KhrDm",
    "province1": "NM",
    "district1": "wushenqi"
  },
  {
    "district_id": "150627",
    "province": "内蒙古自治区",
    "city": "鄂尔多斯市",
    "district": "伊金霍洛",
    "lon": "109.787402",
    "lat": "39.604312",
    "stationid": "KhrDm",
    "province1": "NM",
    "district1": "wushenqi"
  },
  {
    "district_id": "150700",
    "province": "内蒙古自治区",
    "city": "呼伦贝尔市",
    "district": "呼伦贝尔",
    "lon": "119.758168",
    "lat": "49.215333",
    "stationid": "YUznP",
    "province1": "NM",
    "district1": "hulunbeier"
  },
  {
    "district_id": "150702",
    "province": "内蒙古自治区",
    "city": "呼伦贝尔市",
    "district": "海拉尔",
    "lon": "119.764923",
    "lat": "49.213889",
    "stationid": "ZnVfr",
    "province1": "NM",
    "district1": "hailaer"
  },
  {
    "district_id": "150703",
    "province": "内蒙古自治区",
    "city": "呼伦贝尔市",
    "district": "扎赉诺尔",
    "lon": "117.716373",
    "lat": "49.456567",
    "stationid": "ZnVfr",
    "province1": "NM",
    "district1": "hailaer"
  },
  {
    "district_id": "150721",
    "province": "内蒙古自治区",
    "city": "呼伦贝尔市",
    "district": "阿荣旗",
    "lon": "123.464615",
    "lat": "48.130503",
    "stationid": "cYTae",
    "province1": "NM",
    "district1": "arongqi"
  },
  {
    "district_id": "150722",
    "province": "内蒙古自治区",
    "city": "呼伦贝尔市",
    "district": "莫力达瓦",
    "lon": "124.507401",
    "lat": "48.478385",
    "stationid": "cYTae",
    "province1": "NM",
    "district1": "arongqi"
  },
  {
    "district_id": "150723",
    "province": "内蒙古自治区",
    "city": "呼伦贝尔市",
    "district": "鄂伦春旗",
    "lon": "123.44",
    "lat": "50.35",
    "stationid": "lpQez",
    "province1": "NM",
    "district1": "manzhouli"
  },
  {
    "district_id": "150724",
    "province": "内蒙古自治区",
    "city": "呼伦贝尔市",
    "district": "鄂温克旗",
    "lon": "119.45",
    "lat": "49.09",
    "stationid": "lpQez",
    "province1": "NM",
    "district1": "manzhouli"
  },
  {
    "district_id": "150725",
    "province": "内蒙古自治区",
    "city": "呼伦贝尔市",
    "district": "陈旗",
    "lon": "119.26",
    "lat": "49.19",
    "stationid": "lpQez",
    "province1": "NM",
    "district1": "manzhouli"
  },
  {
    "district_id": "150726",
    "province": "内蒙古自治区",
    "city": "呼伦贝尔市",
    "district": "新左旗",
    "lon": "118.16",
    "lat": "48.13",
    "stationid": "lpQez",
    "province1": "NM",
    "district1": "manzhouli"
  },
  {
    "district_id": "150727",
    "province": "内蒙古自治区",
    "city": "呼伦贝尔市",
    "district": "新右旗",
    "lon": "116.49",
    "lat": "48.4",
    "stationid": "lpQez",
    "province1": "NM",
    "district1": "manzhouli"
  },
  {
    "district_id": "150781",
    "province": "内蒙古自治区",
    "city": "呼伦贝尔市",
    "district": "满洲里",
    "lon": "117.455561",
    "lat": "49.590788",
    "stationid": "lpQez",
    "province1": "NM",
    "district1": "manzhouli"
  },
  {
    "district_id": "150782",
    "province": "内蒙古自治区",
    "city": "呼伦贝尔市",
    "district": "牙克石",
    "lon": "120.729005",
    "lat": "49.287024",
    "stationid": "Djmsc",
    "province1": "NM",
    "district1": "yakeshi"
  },
  {
    "district_id": "150783",
    "province": "内蒙古自治区",
    "city": "呼伦贝尔市",
    "district": "扎兰屯",
    "lon": "122.744401",
    "lat": "48.007412",
    "stationid": "SkEfQ",
    "province1": "NM",
    "district1": "zhalantun"
  },
  {
    "district_id": "150784",
    "province": "内蒙古自治区",
    "city": "呼伦贝尔市",
    "district": "额尔古纳",
    "lon": "120.178636",
    "lat": "50.2439",
    "stationid": "KXNSC",
    "province1": "NM",
    "district1": "eerguna"
  },
  {
    "district_id": "150785",
    "province": "内蒙古自治区",
    "city": "呼伦贝尔市",
    "district": "根河",
    "lon": "121.532724",
    "lat": "50.780454",
    "stationid": "VRnKw",
    "province1": "NM",
    "district1": "genhe"
  },
  {
    "district_id": "150800",
    "province": "内蒙古自治区",
    "city": "巴彦淖尔市",
    "district": "巴彦淖尔",
    "lon": "107.416959",
    "lat": "40.757402",
    "stationid": "TBQLP",
    "province1": "NM",
    "district1": "bayannaoer"
  },
  {
    "district_id": "150802",
    "province": "内蒙古自治区",
    "city": "巴彦淖尔市",
    "district": "临河",
    "lon": "107.417018",
    "lat": "40.757092",
    "stationid": "lqHEq",
    "province1": "NM",
    "district1": "linhe"
  },
  {
    "district_id": "150821",
    "province": "内蒙古自治区",
    "city": "巴彦淖尔市",
    "district": "五原",
    "lon": "108.270658",
    "lat": "41.097639",
    "stationid": "mWFOR",
    "province1": "NM",
    "district1": "wuyuan"
  },
  {
    "district_id": "150822",
    "province": "内蒙古自治区",
    "city": "巴彦淖尔市",
    "district": "磴口",
    "lon": "107.006056",
    "lat": "40.330479",
    "stationid": "CaZRE",
    "province1": "NM",
    "district1": "zuokou"
  },
  {
    "district_id": "150823",
    "province": "内蒙古自治区",
    "city": "巴彦淖尔市",
    "district": "乌前旗",
    "lon": "108.39",
    "lat": "40.44",
    "stationid": "CaZRE",
    "province1": "NM",
    "district1": "zuokou"
  },
  {
    "district_id": "150824",
    "province": "内蒙古自治区",
    "city": "巴彦淖尔市",
    "district": "乌中旗",
    "lon": "108.31",
    "lat": "41.34",
    "stationid": "CaZRE",
    "province1": "NM",
    "district1": "zuokou"
  },
  {
    "district_id": "150825",
    "province": "内蒙古自治区",
    "city": "巴彦淖尔市",
    "district": "乌后旗",
    "lon": "106.59",
    "lat": "41.27",
    "stationid": "CaZRE",
    "province1": "NM",
    "district1": "zuokou"
  },
  {
    "district_id": "150826",
    "province": "内蒙古自治区",
    "city": "巴彦淖尔市",
    "district": "杭锦后旗",
    "lon": "107.147682",
    "lat": "40.888797",
    "stationid": "nxQJT",
    "province1": "NM",
    "district1": "hangjinhouqi"
  },
  {
    "district_id": "150900",
    "province": "内蒙古自治区",
    "city": "乌兰察布市",
    "district": "乌兰察布",
    "lon": "113.114543",
    "lat": "41.034126",
    "stationid": "MwkIG",
    "province1": "NM",
    "district1": "wulanchabu"
  },
  {
    "district_id": "150902",
    "province": "内蒙古自治区",
    "city": "乌兰察布市",
    "district": "集宁",
    "lon": "113.116453",
    "lat": "41.034134",
    "stationid": "pZpJB",
    "province1": "NM",
    "district1": "jining"
  },
  {
    "district_id": "150921",
    "province": "内蒙古自治区",
    "city": "乌兰察布市",
    "district": "卓资",
    "lon": "112.577702",
    "lat": "40.89576",
    "stationid": "BQQKj",
    "province1": "NM",
    "district1": "zhuozi"
  },
  {
    "district_id": "150922",
    "province": "内蒙古自治区",
    "city": "乌兰察布市",
    "district": "化德",
    "lon": "114.01008",
    "lat": "41.899335",
    "stationid": "wsLwr",
    "province1": "NM",
    "district1": "huade"
  },
  {
    "district_id": "150923",
    "province": "内蒙古自治区",
    "city": "乌兰察布市",
    "district": "商都",
    "lon": "113.560643",
    "lat": "41.560163",
    "stationid": "gBnSb",
    "province1": "NM",
    "district1": "shangdu"
  },
  {
    "district_id": "150924",
    "province": "内蒙古自治区",
    "city": "乌兰察布市",
    "district": "兴和",
    "lon": "113.834009",
    "lat": "40.872437",
    "stationid": "BtVpC",
    "province1": "NM",
    "district1": "xinghe"
  },
  {
    "district_id": "150925",
    "province": "内蒙古自治区",
    "city": "乌兰察布市",
    "district": "凉城",
    "lon": "112.500911",
    "lat": "40.531627",
    "stationid": "uZabW",
    "province1": "NM",
    "district1": "liangcheng"
  },
  {
    "district_id": "150926",
    "province": "内蒙古自治区",
    "city": "乌兰察布市",
    "district": "察右前旗",
    "lon": "113.13",
    "lat": "40.48",
    "stationid": "uZabW",
    "province1": "NM",
    "district1": "liangcheng"
  },
  {
    "district_id": "150927",
    "province": "内蒙古自治区",
    "city": "乌兰察布市",
    "district": "察右中旗",
    "lon": "112.37",
    "lat": "41.16",
    "stationid": "bmgqt",
    "province1": "NM",
    "district1": "chayouzhongqi"
  },
  {
    "district_id": "150928",
    "province": "内蒙古自治区",
    "city": "乌兰察布市",
    "district": "察右后旗",
    "lon": "113.11",
    "lat": "41.27",
    "stationid": "kCGgC",
    "province1": "NM",
    "district1": "chayouhouqi"
  },
  {
    "district_id": "150929",
    "province": "内蒙古自治区",
    "city": "乌兰察布市",
    "district": "四子王旗",
    "lon": "111.70123",
    "lat": "41.528114",
    "stationid": "rWZNd",
    "province1": "NM",
    "district1": "siziwangqi"
  },
  {
    "district_id": "150981",
    "province": "内蒙古自治区",
    "city": "乌兰察布市",
    "district": "丰镇",
    "lon": "113.163462",
    "lat": "40.437534",
    "stationid": "uGHht",
    "province1": "NM",
    "district1": "fengzhen"
  },
  {
    "district_id": "152200",
    "province": "内蒙古自治区",
    "city": "兴安盟",
    "district": "兴安盟",
    "lon": "122.070317",
    "lat": "46.076268",
    "stationid": "wfaiF",
    "province1": "NM",
    "district1": "xinganmeng"
  },
  {
    "district_id": "152201",
    "province": "内蒙古自治区",
    "city": "兴安盟",
    "district": "乌兰浩特",
    "lon": "122.068975",
    "lat": "46.077238",
    "stationid": "UbrmG",
    "province1": "NM",
    "district1": "wulanhaote"
  },
  {
    "district_id": "152202",
    "province": "内蒙古自治区",
    "city": "兴安盟",
    "district": "阿尔山",
    "lon": "119.943656",
    "lat": "47.177",
    "stationid": "dfCWY",
    "province1": "NM",
    "district1": "aershan"
  },
  {
    "district_id": "152221",
    "province": "内蒙古自治区",
    "city": "兴安盟",
    "district": "科右前旗",
    "lon": "122.069",
    "lat": "46.063",
    "stationid": "XPlcN",
    "province1": "NM",
    "district1": "zhazuoteqi"
  },
  {
    "district_id": "152222",
    "province": "内蒙古自治区",
    "city": "兴安盟",
    "district": "科右中旗",
    "lon": "121.28",
    "lat": "45.03",
    "stationid": "XPlcN",
    "province1": "NM",
    "district1": "zhazuoteqi"
  },
  {
    "district_id": "152223",
    "province": "内蒙古自治区",
    "city": "兴安盟",
    "district": "扎赉特旗",
    "lon": "122.909332",
    "lat": "46.725136",
    "stationid": "XPlcN",
    "province1": "NM",
    "district1": "zhazuoteqi"
  },